"CityId","City","Region","Country","Latitude","Longitude","TimeZone","MSL","isHanafi","isnorthernhemisphere","TwilightAngle"
10,"Mobile","Alabama","United States",30.68,-88.09,"-06:00",,0,0,
277,"Eagle","Colorado","United States",39.60,-106.76,"-07:00",,0,0,
429,"Macomb","Illinois","United States",40.45,-90.67,"-06:00",,0,0,
616,"Redwood Falls","Minnesota","United States",44.49,-95.10,"-06:00",,0,0,
687,"Burwell","Nebraska","United States",41.92,-98.98,"-06:00",,0,0,
1153,"Burlington","Vermont","United States",44.48,-73.21,"-05:00",,0,0,
1154,"Montpelier","Vermont","United States",44.27,-72.58,"-05:00",,0,0,
1155,"Newport","Vermont","United States",44.92,-72.20,"-05:00",,0,0,
1156,"Rutland","Vermont","United States",43.62,-72.95,"-05:00",,0,0,
1157,"Saint Johnsbury","Vermont","United States",44.41,-71.97,"-05:00",,0,0,
1158,"Wilmington","Vermont","United States",42.88,-72.89,"-05:00",,0,0,
1163,"Ulaangom","Uvs","Mongolia",49.96,92.03,"+08:00",,0,0,
1165,"Rio Branco","Acre","Brazil",-8.23,-73.21,"-05:00",,0,0,
1166,"Belém","Paro","Brazil",-1.45,-48.48,"-04:00",,0,0,
1171,"Denpasar","Bali","Indonesia",-8.65,115.21,"+08:00",,0,0,
1172,"Macapá","Amapá","Brazil",0.03,-51.05,"-04:00",,0,0,
1173,"Salvador","Bahia","Brazil",-12.98,-38.51,"-03:00",,0,0,
1175,"Teresina","Piauí","Brazil",-5.08,-42.81,"-03:00",,0,0,
1180,"Salt Lake City","Utah","United States",40.73,-111.88,"-07:00",,0,0,
1181,"Foz do Iguaçu","Paraná","Brazil",-25.55,-54.58,"-03:00",,0,0,
1182,"Montreal","Quebec","Canada",45.50,-73.58,"-05:00",,0,0,
1185,"Ulan-Ude","Buryatiya","Russia",51.83,107.61,"+03:00",,0,0,
1189,"Izhevsk","Buryatiya","Russia",56.85,53.23,"+03:00",,0,0,
1190,"Birobidzhan","Yevreyskaya Avtonomnyy Oblast'","Russia",48.80,132.95,"+03:00",,0,0,
1191,"Hermosillo","Sonora","Mexico",29.06,-110.96,"-07:00",,0,0,
1193,"Tepic","Nayarit","Mexico",21.51,-104.88,"-07:00",,0,0,
1196,"Ondorhaan","Hentiy","Mongolia",47.31,110.65,"+08:00",,0,0,
1197,"Choibalsan","Dornod","Mongolia",48.43,114.86,"+08:00",,0,0,
1201,"Maceió","Alagoas","Brazil",-9.66,-35.71,"-02:00",,0,0,
1202,"João Pessoa","Paraíba","Brazil",-7.11,-34.86,"-03:00",,0,0,
1203,"Boa Vista","Roraima","Brazil",-21.13,-41.56,"-04:00",,0,0,
1204,"Aracaju","Sergipe","Brazil",-10.91,-37.06,"-03:00",,0,0,
1205,"Edmonton","Alberta","Canada",53.55,-113.50,"-07:00",,0,0,
1206,"Toronto","Ontario","Canada",43.66,-79.41,"-05:00",,0,0,
1211,"Guadalajara","Jalisco","Mexico",20.66,-103.33,"-06:00",,0,0,
1212,"Pachuca","Hidalgo","Mexico",20.11,-98.73,"-06:00",,0,0,
1213,"Cuernavaca","Morelos","Mexico",18.91,-99.25,"-06:00",,0,0,
1214,"Tuxtla Gutierrez","Chiapas","Mexico",16.75,-93.11,"-06:00",,0,0,
1215,"Villahermosa","Tabasco","Mexico",17.98,-92.91,"-06:00",,0,0,
1216,"Merida","Yucatan","Mexico",24.55,-98.91,"-06:00",,0,0,
1217,"Moron","Hovsgol","Mongolia",49.64,100.15,"+08:00",,0,0,
1218,"Suhbaatar","Selenge","Mongolia",50.23,106.20,"+08:00",,0,0,
1221,"Honolulu","Hawaii","United States",21.30,-157.84,"-10:00",,0,0,
1222,"Kansas City","Kansas","United States",39.11,-94.67,"-06:00",,0,0,
1225,"Melbourne","Victoria","Australia",-37.81,144.96,"+10:00",,0,0,
1226,"Hobart","Tasmania","Australia",-42.91,147.33,"+10:00",,0,0,
1227,"Manáus","Amazonas","Brazil",-3.11,-60.02,"-04:00",,0,0,
1228,"São Luís","Maranhão","Brazil",-2.51,-44.26,"-03:00",,0,0,
1229,"Porto Velho","Rondônia","Brazil",-9.60,-64.88,"-03:00",,0,0,
1230,"Winnipeg","Manitoba","Canada",49.88,-97.16,"-06:00",,0,0,
1231,"Makhachkala","Dagestan","Russia",42.97,47.50,"+03:00",,0,0,
1232,"Yoshkar-Ola","Mariy-El","Russia",56.63,47.87,"+03:00",,0,0,
1235,"Ujung Pandang","Sulawesi Selatan","Indonesia",-5.11,119.40,"+08:00",,0,0,
1236,"Saltillo","Coahuila de Zaragoza","Mexico",20.31,-98.26,"-06:00",,0,0,
1237,"Acapulco","Guerrero","Mexico",16.85,-99.91,"-06:00",,0,0,
1238,"Tsetserleg","Arhangay","Mongolia",49.50,97.60,"+08:00",,0,0,
1242,"Miami","Florida","United States",25.76,-80.27,"-05:00",,0,0,
1249,"Recife","Pernambuco","Brazil",-8.05,-34.90,"-02:00",,0,0,
1250,"São Paulo","São Paulo","Brazil",-23.53,-46.61,"-03:00",,0,0,
1251,"Palmas","Tocantins","Brazil",-10.42,-48.43,"-03:00",,0,0,
1253,"Kazan","Tatarstan","Russia",55.75,49.13,"+03:00",,0,0,
1254,"Queretaro","Queretaro de Arteaga","Mexico",32.55,-115.15,"-06:00",,0,0,
1255,"Morelia","Michoacan de Ocampo","Mexico",22.48,-102.38,"-06:00",,0,0,
1265,"Omaha","Nebraska","United States",41.21,-96.06,"-06:00",,0,0,
1267,"Oklahoma City","Oklahoma","United States",35.41,-97.51,"-06:00",,0,0,
1268,"Brisbane","Queensland","Australia",-27.50,153.01,"+10:00",,0,0,
1275,"Monterrey","Nuevo Leon","Mexico",25.66,-100.31,"-06:00",,0,0,
1276,"Ciudad Victoria","Tamaulipas","Mexico",23.73,-99.13,"-06:00",,0,0,
1277,"Leon","Guanajuato","Mexico",21.11,-101.66,"-06:00",,0,0,
1278,"Altai","Govi-Altay","Mongolia",44.91,95.41,"+08:00",,0,0,
1283,"Cuiabá","Mato Grosso","Brazil",-15.58,-56.08,"-04:00",,0,0,
1284,"Halifax","Nova Scotia","Canada",44.65,-63.60,"-04:00",,0,0,
1285,"Olgii","Bayan-Olgiy","Mongolia",49.03,92.03,"+08:00",,0,0,
1288,"Newark","New Jersey","United States",40.73,-74.18,"-05:00",,0,0,
1291,"Belo Horizonte","Minas Gerais","Brazil",-19.91,-43.93,"-03:00",,0,0,
1292,"Regina","Saskatchewan","Canada",50.45,-104.61,"-06:00",,0,0,
1293,"St. John's","Newfoundland and Labrador","Canada",47.57,-52.73,"-03:50",,0,0,
1295,"Chetumal","Quintana Roo","Mexico",18.50,-88.30,"-06:00",,0,0,
1298,"Fredericton","New Brunswick","Canada",45.95,-66.63,"-04:00",,0,0,
1303,"Newport","Rhode Island","United States",41.47,-71.32,"-05:00",,0,0,
1306,"Vitória","Espírito Santo","Brazil",-20.31,-40.35,"-03:00",,0,0,
1307,"Rio de Janeiro","Rio de Janeiro","Brazil",-22.90,-43.23,"-03:00",,0,0,
1308,"Florianópolis","Santa Catarina","Brazil",-27.58,-48.56,"-03:00",,0,0,
1311,"Sydney","New South Wales","Australia",-33.88,151.21,"+10:00",,0,0,
1312,"Adelaide","South Australia","Australia",-34.93,138.60,"+09:30",,0,0,
1314,"Pontianak","Kalimantan Barat","Indonesia",-0.03,109.33,"+08:00",,0,0,
1315,"Samarinda","Kalimantan Timur","Indonesia",-0.50,117.15,"+08:00",,0,0,
1316,"Mexicali","Baja California","Mexico",32.66,-115.48,"-08:00",,0,0,
1317,"Raleigh","North Carolina","United States",35.80,-78.64,"-05:00",,0,0,
1319,"Brasília","Distrito Federal","Brazil",-15.78,-47.91,"-03:00",,0,0,
1320,"Vancouver","British Columbia","Canada",49.25,-123.13,"-08:00",,0,0,
1323,"Perth","Western Australia","Australia",-31.93,115.83,"+08:00",,0,0,
1324,"Porto Alegre","Rio Grande do Sul","Brazil",-30.03,-51.20,"-03:00",,0,0,
1327,"Darwin","Northern Territory","Australia",-12.46,130.83,"+09:30",,0,0,
1328,"Campo Grande","Mato Grosso do Sul","Brazil",-20.45,-54.61,"-04:00",,0,0,
1329,"Natal","Rio Grande do Norte","Brazil",-5.78,-35.21,"-02:00",,0,0,
1331,"La Paz","Baja California Sur","Mexico",24.16,-110.30,"-07:00",,0,0,
1332,"Charlottetown","Prince Edward Island","Canada",46.23,-63.13,"-04:00",,0,0,
1333,"Yellowknife","Northwest Territories","Canada",62.45,-114.35,"-07:00",,0,0,
1336,"Canberra","Australian Capital Territory","Australia",-35.28,149.21,"+10:00",,0,0,
1342,"Bulgan","Bulgan","Mongolia",47.31,101.10,"+08:00",,0,0,
1343,"Hovd","Hovd","Mongolia",48.01,91.63,"+08:00",,0,0,
1344,"Campeche","Campeche","Mexico",19.85,-90.53,"-06:00",,0,0,
1345,"Chihuahua","Chihuahua","Mexico",28.63,-106.08,"-07:00",,0,0,
1346,"Colima","Colima","Mexico",19.23,-103.71,"-06:00",,0,0,
1347,"Durango","Durango","Mexico",24.03,-104.66,"-06:00",,0,0,
1348,"Estado De Mexico","Mexico","Mexico",18.01,-90.86,"-06:00",,0,0,
1350,"Oaxaca","Oaxaca","Mexico",32.33,-115.20,"-06:00",,0,0,
1353,"Tlaxcala","Tlaxcala","Mexico",19.31,-98.23,"-06:00",,0,0,
1355,"Zacatecas","Zacatecas","Mexico",22.78,-102.58,"-06:00",,0,0,
1362,"Chelyabinsk","Chelyabinskaya Oblast'","Russia",55.16,61.40,"+03:00",,0,0,
1364,"Chukchi","Chukotskiy Avtonomnyy Okrug","Russia",64.75,177.48,"+03:00",,0,0,
1367,"Irkutsk","Irkutskaya Oblast'","Russia",52.26,104.33,"+03:00",,0,0,
1368,"Ivanovo","Ivanovskaya Oblast'","Russia",55.48,54.83,"+03:00",,0,0,
1371,"Kemerovo","Kemerovskaya Oblast'","Russia",55.33,86.08,"+03:00",,0,0,
1384,"Moscow","Moskva","Russia",55.75,37.58,"+03:00",,0,0,
1386,"Novgorod","Novgorodskaya Oblast'","Russia",42.65,130.80,"+03:00",,0,0,
1387,"Novosibirsk","Novosibirskaya Oblast'","Russia",55.03,82.91,"+03:00",,0,0,
1388,"Omsk","Omskaya Oblast'","Russia",55.00,73.40,"+03:00",,0,0,
1390,"Orenburg","Orenburgskaya Oblast'","Russia",51.78,55.05,"+03:00",,0,0,
1392,"Perm'","Permskaya Oblast'","Russia",58.00,56.25,"+03:00",,0,0,
1396,"Saint Petersburg","Sankt-Peterburg","Russia",59.89,30.26,"+03:00",,0,0,
1398,"Saratov","Saratovskaya Oblast'","Russia",53.11,54.86,"+03:00",,0,0,
1400,"Smolensk","Smolenskaya Oblast'","Russia",54.78,32.04,"+03:00",,0,0,
1402,"Tambov","Tambovskaya Oblast'","Russia",52.73,41.43,"+03:00",,0,0,
1410,"Volgograd","Volgogradskaya Oblast'","Russia",48.80,44.58,"+03:00",,0,0,
1416,"Kinsasa","Pool","Congo, Republic of the",1.97,14.77,"+01:00",,0,0,
3332,"Moulmein","Mon State","Burma",16.50,97.63,"+06:50",,0,0,
3333,"Gyumri","Shirak","Armenia",40.79,43.83,"+04:00",,0,0,
3334,"Spitak","Shirak","Armenia",40.79,44.27,"+04:00",,0,0,
3335,"Vanadzor","Lorri","Armenia",40.80,44.49,"+04:00",,0,0,
3336,"Yerevan","Yerevan","Armenia",40.18,44.50,"+04:00",,0,0,
3338,"Bahia Blanca","Buenos Aires","Argentina",-38.71,-62.28,"-03:00",,0,0,
3340,"Cordoba","Cordoba","Argentina",-31.40,-64.18,"-03:00",,0,0,
3341,"Crespo","Entre Rios","Argentina",-32.03,-60.31,"-03:00",,0,0,
3342,"General Roca","Rio Negro","Argentina",-39.05,-67.53,"-03:00",,0,0,
3343,"La Plata","Buenos Aires","Argentina",-34.93,-57.94,"-03:00",,0,0,
3344,"Luján de Cuyo","Mendoza","Argentina",-33.05,-68.86,"-03:00",,0,0,
3345,"Neuquen","Neuquen","Argentina",-38.95,-68.06,"-03:00",,0,0,
3346,"Paraná","Entre Rios","Argentina",-31.73,-60.53,"-03:00",,0,0,
3347,"Pinamar","Buenos Aires","Argentina",-37.11,-56.83,"-03:00",,0,0,
3348,"Rio Cuarto","Santa Cruz","Argentina",-33.13,-64.35,"-03:00",,0,0,
3349,"San Clemente del Tuyú","Buenos Aires","Argentina",-36.36,-56.71,"-03:00",,0,0,
3350,"San Miguel de Tucuman","Tucuman","Argentina",-26.81,-65.21,"-03:00",,0,0,
3351,"Santa Fe","Santa Fe","Argentina",-31.63,-60.70,"-03:00",,0,0,
3352,"Abtenau","Wien","Austria",47.55,13.35,"+01:00",,0,0,
3353,"Graz","Steiermark","Austria",47.06,15.45,"+01:00",,0,0,
3354,"Kitzbuhel","Tirol","Austria",47.45,12.38,"+01:00",,0,0,
3355,"Lilienfeld","Niederosterreich","Austria",48.01,15.63,"+01:00",,0,0,
3356,"Linz","Oberosterreich","Austria",48.30,14.30,"+01:00",,0,0,
3357,"Salzburg","Salzburg","Austria",47.80,13.03,"+01:00",,0,0,
3358,"Solden","Tirol","Austria",46.96,11.00,"+01:00",,0,0,
3361,"Stegersbach","Burgenland","Austria",47.16,16.16,"+01:00",,0,0,
3362,"Steyr","Oberosterreich","Austria",48.05,14.41,"+01:00",,0,0,
3364,"Albury","New South Wales","Australia",-36.08,146.91,"+10:00",,0,0,
3365,"Beachport","South Australia","Australia",-37.50,140.01,"+09:30",,0,0,
3366,"Bega","New South Wales","Australia",-36.66,149.83,"+10:00",,0,0,
3367,"Berwick","Victoria","Australia",-38.03,145.35,"+10:00",,0,0,
3368,"Blue Mountain","Queensland","Australia",-21.58,149.03,"+10:00",,0,0,
3369,"Bowral","New South Wales","Australia",-34.46,150.41,"+10:00",,0,0,
3370,"Cairns","Queensland","Australia",-16.91,145.76,"+10:00",,0,0,
3371,"Campbell Town","Tasmania","Australia",-41.91,147.50,"+10:00",,0,0,
3372,"Chelsea","Victoria","Australia",-38.05,145.11,"+10:00",,0,0,
3374,"Cooktown","Queensland","Australia",-15.46,145.25,"+10:00",,0,0,
3375,"Cootamundra","New South Wales","Australia",-34.65,148.03,"+10:00",,0,0,
3376,"Croydon","Queensland","Australia",-18.21,142.23,"+10:00",,0,0,
3377,"Dubbo","New South Wales","Australia",-32.25,148.61,"+10:00",,0,0,
3378,"Elizabeth","South Australia","Australia",-34.73,138.65,"+09:30",,0,0,
3379,"Gold Coast","Queensland","Australia",-28.00,153.43,"+10:00",,0,0,
3380,"Goulburn","New South Wales","Australia",-34.75,149.71,"+10:00",,0,0,
3381,"Grafton","New South Wales","Australia",-29.68,152.93,"+10:00",,0,0,
3383,"Inverell","New South Wales","Australia",-29.78,151.11,"+10:00",,0,0,
3384,"Kempsey","New South Wales","Australia",-31.08,152.83,"+10:00",,0,0,
3386,"Lithgow","New South Wales","Australia",-33.48,150.15,"+10:00",,0,0,
3387,"Mackay","Queensland","Australia",-21.15,149.20,"+10:00",,0,0,
3388,"Maitland","New South Wales","Australia",-32.73,151.55,"+10:00",,0,0,
3389,"Manly","Queensland","Australia",-27.46,153.18,"+10:00",,0,0,
3390,"Mildura","Victoria","Australia",-34.20,142.15,"+10:00",,0,0,
3391,"Millecent","South Australia","Australia",-37.60,140.35,"+09:30",,0,0,
3392,"Moe","Victoria","Australia",-38.16,146.26,"+10:00",,0,0,
3393,"Mona Vale","New South Wales","Australia",-33.66,151.30,"+10:00",,0,0,
3394,"Newcastle","New South Wales","Australia",-32.91,151.75,"+10:00",,0,0,
3395,"Orange","New South Wales","Australia",-33.28,149.10,"+10:00",,0,0,
3396,"Shepparton","Victoria","Australia",-36.38,145.40,"+10:00",,0,0,
3397,"Srtoud","New South Wales","Australia",-32.40,151.96,"+10:00",,0,0,
3399,"Tamworth","New South Wales","Australia",-31.10,150.93,"+10:00",,0,0,
3400,"Wagga Wagga","New South Wales","Australia",-35.11,147.36,"+10:00",,0,0,
3401,"Warringa","New South Wales","Australia",-33.80,151.28,"+10:00",,0,0,
3402,"Wauchope","New South Wales","Australia",-31.45,152.73,"+10:00",,0,0,
3403,"Wyong","New South Wales","Australia",-33.28,151.35,"+10:00",,0,0,
3404,"Young","New South Wales","Australia",-34.31,148.30,"+10:00",,0,0,
3405,"Baku","Abseron","Azerbaijan",40.39,49.86,"+03:00",,0,0,
3406,"Brussels","Brussels","Belgium",50.83,4.33,"+01:00",,0,0,
3407,"Charleroi","Hainaut","Belgium",50.41,4.43,"+01:00",,0,0,
3408,"Diksmuide","West-Vlaanderen","Belgium",51.03,2.86,"+01:00",,0,0,
3409,"Dilbeek","Vlaams-Brabant","Belgium",50.85,4.26,"+01:00",,0,0,
3410,"Frameries","Hainaut","Belgium",50.40,3.90,"+01:00",,0,0,
3411,"Genappe","Brabant Wallon","Belgium",50.60,4.45,"+01:00",,0,0,
3412,"Hasselt","Limburg","Belgium",50.93,5.33,"+01:00",,0,0,
3413,"Kortrijk","West-Vlaanderen","Belgium",50.83,3.26,"+01:00",,0,0,
3415,"Malines","Antwerpen","Belgium",51.03,4.46,"+01:00",,0,0,
3416,"Mechelen","Antwerpen","Belgium",51.03,4.46,"+01:00",,0,0,
3417,"Namur","Namur","Belgium",50.46,4.86,"+01:00",,0,0,
3418,"Pittem","West-Vlaanderen","Belgium",51.00,3.26,"+01:00",,0,0,
3419,"Bousse","Kourwéogo","Burkina Faso",13.10,-3.38,"+00:00",,0,0,
3420,"Ouahigouya","Yatenga","Burkina Faso",13.58,-2.41,"+00:00",,0,0,
3421,"Yako","Passore","Burkina Faso",12.96,-2.26,"+00:00",,0,0,
3422,"Plovdiv","Plovdiv","Bulgaria",42.15,24.75,"+02:00",,0,0,
3423,"Sofia","Sofiya","Bulgaria",42.68,23.31,"+02:00",,0,0,
3424,"Varna","Varna","Bulgaria",43.21,27.91,"+02:00",,0,0,
3426,"Cochabamba","Cochabamba","Bolivia",-17.38,-66.15,"-04:00",,0,0,
3428,"Oruro","Oruro","Bolivia",-17.98,-67.15,"-04:00",,0,0,
3429,"Santa Cruz","Santa Cruz","Bolivia",-21.75,-65.31,"-04:00",,0,0,
3430,"Águas de Lindóia","São Paulo","Brazil",-22.48,-46.65,"-03:00",,0,0,
3431,"Barbacena","Minas Gerais","Brazil",-21.23,-43.76,"-03:00",,0,0,
3432,"Campinas","São Paulo","Brazil",-22.90,-47.08,"-03:00",,0,0,
3433,"Fortaleza","Ceará","Brazil",-3.31,-41.41,"-03:00",,0,0,
3434,"Garanhuns","Pernambuco","Brazil",-8.90,-36.48,"-02:00",,0,0,
3435,"Itapetinga","Bahia","Brazil",-15.25,-40.25,"-03:00",,0,0,
3436,"Jundiaí","São Paulo","Brazil",-23.45,-50.28,"-03:00",,0,0,
3437,"Londrina","Paraná","Brazil",-23.30,-51.15,"-03:00",,0,0,
3438,"Nepomuceno","Minas Gerais","Brazil",-21.23,-45.25,"-03:00",,0,0,
3440,"São Sebastião","São Paulo","Brazil",-22.46,-47.76,"-03:00",,0,0,
3441,"Gaborone","SouthEast","Botswana",-24.66,25.91,"+02:00",,0,0,
3442,"Minsk","Minskaya Voblasts'","Belarus",53.90,27.56,"+02:00",,0,0,
3443,"Molodechno","Mahilyowskaya Voblasts'","Belarus",54.31,26.85,"+02:00",,0,0,
3444,"Minsk","Minsk","Belarus",53.90,27.56,"+02:00",,0,0,
3445,"Belize","Belize","Belize",17.48,-88.18,"-06:00",,0,0,
3446,"Belmopan","Cayo","Belize",17.25,-88.76,"-06:00",,0,0,
3447,"Punta Gorda","Toledo","Belize",16.10,-88.80,"-06:00",,0,0,
3448,"Orange Walk","Orange Walk","Belize",18.06,-88.55,"-06:00",,0,0,
3449,"Brandon","Manitoba","Canada",49.83,-99.95,"-06:00",,0,0,
3450,"Brockville","Ontario","Canada",44.58,-75.68,"-05:00",,0,0,
3451,"Brussels","Ontario","Canada",43.73,-81.25,"-05:00",,0,0,
3452,"Burlington","Ontario","Canada",43.31,-79.80,"-05:00",,0,0,
3453,"Collingwood","Ontario","Canada",44.50,-80.21,"-05:00",,0,0,
3454,"Courtenay","British Columbia","Canada",49.68,-125.00,"-08:00",,0,0,
3455,"Cranbrook","British Columbia","Canada",49.51,-115.76,"-07:00",,0,0,
3456,"Dawson Creek","British Columbia","Canada",55.76,-120.23,"-07:00",,0,0,
3457,"Georgina","Ontario","Canada",44.25,-79.32,"-05:00",,0,0,
3459,"Granby","Quebec","Canada",45.38,-72.73,"-05:00",,0,0,
3460,"Hamilton","Ontario","Canada",43.25,-79.83,"-05:00",,0,0,
3461,"Kamloops","British Columbia","Canada",50.66,-120.33,"-08:00",,0,0,
3462,"Kingston","Ontario","Canada",44.23,-76.48,"-05:00",,0,0,
3463,"La Salle","Quebec","Canada",45.41,-73.65,"-05:00",,0,0,
3464,"Leamington","Ontario","Canada",42.05,-82.58,"-05:00",,0,0,
3468,"Markham","Ontario","Canada",43.86,-79.26,"-05:00",,0,0,
3469,"Moncton","New Brunswick","Canada",46.08,-64.76,"-04:00",,0,0,
3470,"Orillia","Ontario","Canada",44.60,-79.41,"-05:00",,0,0,
3473,"Owen Sound","Ontario","Canada",44.56,-80.85,"-05:00",,0,0,
3474,"Peterborough","Ontario","Canada",44.30,-78.33,"-05:00",,0,0,
3476,"Prince Rupert","British Columbia","Canada",54.31,-130.33,"-08:00",,0,0,
3477,"Quebec","Quebec","Canada",46.80,-71.25,"-05:00",,0,0,
3479,"Sarnia","Ontario","Canada",42.96,-82.40,"-05:00",,0,0,
3480,"Scarborough","Ontario","Canada",43.75,-79.20,"-05:00",,0,0,
3483,"Saint John","New Brunswick","Canada",45.26,-66.06,"-04:00",,0,0,
3484,"Stratford","Ontario","Canada",43.36,-80.98,"-05:00",,0,0,
3486,"Thunder Bay","Ontario","Canada",48.40,-89.23,"-05:00",,0,0,
3487,"Vernon","British Columbia","Canada",50.26,-119.26,"-08:00",,0,0,
3488,"Waterloo","Ontario","Canada",43.46,-80.53,"-05:00",,0,0,
3489,"Wawa","Ontario","Canada",48.00,-84.78,"-05:00",,0,0,
3492,"Woodstock","Ontario","Canada",43.13,-80.75,"-05:00",,0,0,
3493,"Bern","Bern","Switzerland",46.91,7.46,"+01:00",,0,0,
3494,"Chur","Graubunden","Switzerland",46.85,9.50,"+01:00",,0,0,
3496,"Davos","Graubunden","Switzerland",46.81,9.83,"+01:00",,0,0,
3497,"Liestal","Basel-Landschaft","Switzerland",47.46,7.73,"+01:00",,0,0,
3498,"Locarno","Ticino","Switzerland",46.16,8.80,"+01:00",,0,0,
3499,"Saas Fee","Bern","Switzerland",46.10,7.92,"+01:00",,0,0,
3500,"Saint Moritz","Graubunden","Switzerland",46.49,9.82,"+01:00",,0,0,
3501,"Sursee","Luzern","Switzerland",47.16,8.10,"+01:00",,0,0,
3502,"Winterthur","Sankt Gallen","Switzerland",47.50,8.75,"+01:00",,0,0,
3503,"Abidjan","Abidjan","Cote d'Ivoire",5.31,-4.03,"+00:00",,0,0,
3504,"La Serena","Coquimbo","Chile",-29.90,-71.25,"-04:00",,0,0,
3506,"Pucon","Araucania","Chile",-39.26,-71.96,"-04:00",,0,0,
3507,"Punta Arenas","Magallanes y de la Antartica Chilena","Chile",-53.15,-70.91,"-04:00",,0,0,
3508,"Santiago","Region Metropolitana","Chile",-33.45,-70.66,"-04:00",,0,0,
3509,"Talca","Atacama","Chile",-30.00,-71.01,"-04:00",,0,0,
3510,"Valdivia","Los Lagos","Chile",-39.80,-73.23,"-04:00",,0,0,
3511,"Valparaiso","Valparaiso","Chile",-33.04,-71.60,"-04:00",,0,0,
3513,"Douala","Littoral","Cameroon",4.05,9.70,"+01:00",,0,0,
3514,"Limbe","SudOuest","Cameroon",4.01,9.20,"+01:00",,0,0,
3515,"Mankon Bamenda","NordOuest","Cameroon",5.93,10.16,"+01:00",,0,0,
3516,"Baoding","Hebei","China",18.76,109.20,"+08:00",,0,0,
3517,"Beihai","Guangxi","China",21.48,109.10,"+08:00",,0,0,
3518,"Beijing","Beijing","China",39.90,116.41,"+08:00",,0,0,
3519,"Changchun","Beijing","China",26.73,120.05,"+08:00",,0,0,
3520,"Changhua City","Henan","China",34.83,112.43,"+08:00",,0,0,
3521,"Changhua","Gansu","China",34.83,112.43,"+08:00",,0,0,
3522,"Changsha","Hunan","China",28.20,112.96,"+08:00",,0,0,
3523,"Changshu","Jiangsu","China",31.64,120.73,"+08:00",,0,0,
3524,"Changzhi","Shanxi","China",36.05,113.04,"+08:00",,0,0,
3525,"Chengdu","Sichuan","China",30.66,104.06,"+08:00",,0,0,
3529,"Chongqing","Chongqing","China",29.55,106.53,"+08:00",,0,0,
3532,"Dalian","Liaoning","China",38.91,121.65,"+08:00",,0,0,
3533,"Dandong","Guizhou","China",26.97,108.90,"+08:00",,0,0,
3534,"Dongying","Hebei","China",40.81,117.36,"+08:00",,0,0,
3537,"Foshan","Guangdong","China",23.03,113.11,"+08:00",,0,0,
3538,"Fuzhou","Fujian","China",26.08,119.30,"+08:00",,0,0,
3539,"Guangzhou","Guangdong","China",23.11,113.25,"+08:00",,0,0,
3540,"Guilin","Guangxi","China",25.28,110.28,"+08:00",,0,0,
3543,"Hangzhou","Zhejiang","China",30.25,120.16,"+08:00",,0,0,
3544,"Harbin","Heilongjiang","China",45.75,126.65,"+08:00",,0,0,
3545,"Hefei","Anhui","China",31.86,117.28,"+08:00",,0,0,
3549,"Hsin Tien","China","China",0.00,0.00,"+08:00",,0,0,
3550,"Hsin-Chu County","China","China",0.00,0.00,"+08:00",,0,0,
3551,"Hsin-Chu","Shaanxi","China",34.38,109.05,"+08:00",,0,0,
3552,"Hsintien City","China","China",0.00,0.00,"+08:00",,0,0,
3553,"Hua-Lien City","Hunan","China",0.00,0.00,"+08:00",,0,0,
3554,"Hua-Lien County","China","China",0.00,0.00,"+08:00",,0,0,
3555,"I-Lan County","China","China",0.00,0.00,"+08:00",,0,0,
3556,"Jilin","Jilin","China",23.58,107.43,"+08:00",,0,0,
3557,"Jinan","Shandong","China",36.66,117.00,"+08:00",,0,0,
3558,"Kaifeng","Sichuan","China",31.76,105.35,"+08:00",,0,0,
3559,"Kaiping","Guangdong","China",22.38,112.68,"+08:00",,0,0,
3560,"Kaohsiung County","Kao-hsiung","Taiwan",22.63,120.35,"+08:00",,0,0,
3561,"Kaohsiung Municipality","Kao-hsiung","Taiwan",22.63,120.35,"+08:00",,0,0,
3562,"Keelung City","China","China",0.00,0.00,"+08:00",,0,0,
3563,"Kunming","Guizhou","China",25.04,102.71,"+08:00",,0,0,
3565,"Liaoyang","Liaoning","China",41.23,123.10,"+08:00",,0,0,
3566,"Liuzhou","Guangxi","China",29.85,118.17,"+08:00",,0,0,
3567,"Luchou Township","China","China",0.00,0.00,"+08:00",,0,0,
3568,"Luoyang","Henan","China",34.68,112.46,"+08:00",,0,0,
3569,"Miao-Li County","China","China",0.00,0.00,"+08:00",,0,0,
3570,"Mucha District","China","China",0.00,0.00,"+08:00",,0,0,
3571,"Nanjing","Jiangsu","China",32.06,118.77,"+08:00",,0,0,
3572,"Nantou County","China","China",0.00,0.00,"+08:00",,0,0,
3573,"Neipu Hsiang","China","China",0.00,0.00,"+08:00",,0,0,
3574,"Ningbo","Zhejiang","China",29.87,121.54,"+08:00",,0,0,
3575,"Pei-Kang Township","China","China",0.00,0.00,"+08:00",,0,0,
3576,"Qingdao","Shandong","China",36.08,120.34,"+08:00",,0,0,
3577,"Qinhuangdao","Hebei","China",39.93,119.61,"+08:00",,0,0,
3578,"Quanzhou","Fujian","China",24.90,118.58,"+08:00",,0,0,
3579,"Qufu","Shandong","China",35.58,116.98,"+08:00",,0,0,
3580,"Quzhou","Zhejiang","China",28.96,118.86,"+08:00",,0,0,
3581,"Shanghai","Shanghai","China",31.10,121.36,"+08:00",,0,0,
3582,"Shenyang","Liaoning","China",41.80,123.45,"+08:00",,0,0,
3583,"Shenzhen","Guangdong","China",22.53,114.13,"+08:00",,0,0,
3584,"Shijiazhuang","Hebei","China",30.62,121.09,"+08:00",,0,0,
3585,"Shin Lin District","China","China",0.00,0.00,"+08:00",,0,0,
3586,"Shiyan","Zhejiang","China",29.09,121.38,"+08:00",,0,0,
3587,"Suzhou","Jiangsu","China",31.31,120.61,"+08:00",,0,0,
3588,"Taichung City","China","China",0.00,0.00,"+08:00",,0,0,
3589,"Tai-Nan City","China","China",0.00,0.00,"+08:00",,0,0,
3592,"Tamsui Township","China","China",0.00,0.00,"+08:00",,0,0,
3594,"TIANJIN","Tianjin","China",39.13,117.20,"+08:00",,0,0,
3595,"Wuchi Town","China","China",0.00,0.00,"+08:00",,0,0,
3596,"WUHAN","Hubei","China",30.58,114.26,"+08:00",,0,0,
3597,"WUXI","Jiangsu","China",28.28,110.16,"+08:00",,0,0,
3598,"XIAMEN","Fujian","China",24.45,118.08,"+08:00",,0,0,
3599,"YANGZHOU","Jiangsu","China",32.38,119.43,"+08:00",,0,0,
3600,"YANTAI","Shandong","China",37.53,121.40,"+08:00",,0,0,
3601,"YINGKOU","Liaoning","China",40.66,122.28,"+08:00",,0,0,
3602,"YUEYANG","Hunan","China",29.38,113.10,"+08:00",,0,0,
3603,"Yungho City","China","China",0.00,0.00,"+08:00",,0,0,
3604,"YUSHU","Hubei","China",32.11,112.88,"+08:00",,0,0,
3605,"ZHENGZHOU","Henan","China",34.76,113.65,"+08:00",,0,0,
3606,"ZHENJIANG","Guizhou","China",26.66,108.52,"+08:00",,0,0,
3607,"ZHOUSHAN","Zhejiang","China",30.02,122.09,"+08:00",,0,0,
3608,"ZHUHAI","Guangdong","China",22.28,113.56,"+08:00",,0,0,
3609,"ZIBO","Shandong","China",36.80,118.05,"+08:00",,0,0,
3610,"ZIGONG","Sichuan","China",29.40,104.78,"+08:00",,0,0,
3611,"Armenia","Atlantico","Colombia",7.13,-73.37,"-05:00",,0,0,
3612,"Barranquilla","Atlantico","Colombia",10.98,-74.80,"-05:00",,0,0,
3614,"Bucaramanga","Santander","Colombia",7.13,-73.12,"-05:00",,0,0,
3615,"Cali","Valle del Cauca","Colombia",3.44,-76.51,"-05:00",,0,0,
3617,"Cartagena","Amazonas","Colombia",9.68,-73.26,"-05:00",,0,0,
3619,"Honda","Cauca","Colombia",1.85,-76.81,"-05:00",,0,0,
3620,"Ibague","Tolima","Colombia",4.43,-75.22,"-05:00",,0,0,
3621,"Manizales","Caldas","Colombia",5.08,-75.50,"-05:00",,0,0,
3622,"Medellin","Antioquia","Colombia",6.25,-75.58,"-05:00",,0,0,
3623,"Popayan","Cauca","Colombia",8.67,-76.20,"-05:00",,0,0,
3624,"Santa Marta","Magdalena","Colombia",3.05,-76.56,"-05:00",,0,0,
3625,"Sincelejo","La Guajira","Colombia",10.95,-72.70,"-05:00",,0,0,
3626,"Tunja","Norte de Santander","Colombia",8.19,-73.25,"-05:00",,0,0,
3627,"Cartago","Cartago","Costa Rica",9.86,-83.91,"-06:00",,0,0,
3628,"Ciudad Quesada","Guanacaste","Costa Rica",10.33,-84.43,"-06:00",,0,0,
3629,"Escazu","San Jose","Costa Rica",9.91,-84.13,"-06:00",,0,0,
3630,"Heredia","Heredia","Costa Rica",10.00,-84.11,"-06:00",,0,0,
3631,"Jaco","Puntarenas","Costa Rica",9.61,-84.63,"-06:00",,0,0,
3632,"Liberia","Guanacaste","Costa Rica",10.63,-85.43,"-06:00",,0,0,
3634,"San Jose","San Jose","Costa Rica",9.93,-84.08,"-06:00",,0,0,
3635,"San Ramon","San Jose","Costa Rica",9.41,-83.73,"-06:00",,0,0,
3636,"Turrialba","Cartago","Costa Rica",9.90,-83.68,"-06:00",,0,0,
3637,"Mindelo","Sao Vicente","Cape Verde",16.88,-25.00,"-01:00",,0,0,
3638,"Praia","Praia","Cape Verde",14.91,-23.51,"-01:00",,0,0,
3639,"Brno","Jihomoravsky Kraj","Czech Republic",49.20,16.63,"+01:00",,0,0,
3640,"Karlovy Vary","Karlovarsky Kraj","Czech Republic",50.21,12.90,"+01:00",,0,0,
3641,"Krnov","Moravskoslezsky Kraj","Czech Republic",49.70,17.20,"+01:00",,0,0,
3642,"Olomouc","Olomoucky Kraj","Czech Republic",49.58,17.25,"+01:00",,0,0,
3643,"Prague","Hlavni Mesto Praha","Czech Republic",50.08,14.46,"+01:00",,0,0,
3644,"Zamberk","Pardubicky Kraj","Czech Republic",50.10,16.46,"+01:00",,0,0,
3645,"Aachen","Nordrhein-Westfalen","Germany",50.76,6.10,"+01:00",,0,0,
3646,"Ansbach","Bayern","Germany",49.30,10.58,"+01:00",,0,0,
3647,"Apolda","Thuringen","Germany",51.01,11.50,"+01:00",,0,0,
3648,"Augsburg","Bayern","Germany",48.36,10.88,"+01:00",,0,0,
3649,"Bad Koenigshofen","Bayern","Germany",50.30,10.48,"+01:00",,0,0,
3650,"Bad Zwischenahn","Niedersachsen","Germany",53.18,8.00,"+01:00",,0,0,
3651,"Berlin","Berlin","Germany",52.51,13.40,"+01:00",,0,0,
3652,"Bexbach","Saarland","Germany",49.33,7.26,"+01:00",,0,0,
3653,"Billerbeck","Niedersachsen","Germany",51.83,9.98,"+01:00",,0,0,
3654,"Bingen Am Rhein","Rheinland-Pfalz","Germany",49.96,7.90,"+01:00",,0,0,
3655,"Braunfels","Hessen","Germany",50.51,8.40,"+01:00",,0,0,
3656,"Braunschweig","Niedersachsen","Germany",52.26,10.53,"+01:00",,0,0,
3657,"Budingen","Saarland","Germany",49.45,6.55,"+01:00",,0,0,
3658,"Coburg","Bayern","Germany",50.25,10.96,"+01:00",,0,0,
3659,"Cologne","Nordrhein-Westfalen","Germany",50.93,6.95,"+01:00",,0,0,
3660,"Crailsheim","Baden-Wurttemberg","Germany",49.15,10.08,"+01:00",,0,0,
3661,"Cranzahl","Sachsen","Germany",50.51,13.00,"+01:00",,0,0,
3662,"Dorfen","Bayern","Germany",47.76,12.20,"+01:00",,0,0,
3663,"Dortmund","Nordrhein-Westfalen","Germany",51.51,7.45,"+01:00",,0,0,
3664,"Dresden","Sachsen","Germany",51.05,13.75,"+01:00",,0,0,
3665,"Eberbach","Baden-Wurttemberg","Germany",49.46,8.99,"+01:00",,0,0,
3666,"Eichstatt","Bayern","Germany",48.63,12.10,"+01:00",,0,0,
3667,"Eisenach","Thuringen","Germany",50.98,10.31,"+01:00",,0,0,
3668,"Emmerich","Nordrhein-Westfalen","Germany",51.83,6.25,"+01:00",,0,0,
3669,"Erfurt","Thuringen","Germany",50.98,11.03,"+01:00",,0,0,
3670,"Esslingen","Baden-Wurttemberg","Germany",48.75,9.30,"+01:00",,0,0,
3671,"Eutin","Schleswig-Holstein","Germany",54.13,10.61,"+01:00",,0,0,
3672,"Freiburg Im Breisgau","Baden-Wurttemberg","Germany",48.00,7.85,"+01:00",,0,0,
3673,"Friedrichshafen","Baden-Wurttemberg","Germany",47.65,9.48,"+01:00",,0,0,
3674,"Friolzheim","Baden-Wurttemberg","Germany",48.83,8.83,"+01:00",,0,0,
3675,"Fussen","Bayern","Germany",47.56,10.70,"+01:00",,0,0,
3676,"Garbsen","Niedersachsen","Germany",52.41,9.60,"+01:00",,0,0,
3679,"Gedern","Baden-Wurttemberg","Germany",51.41,7.35,"+01:00",,0,0,
3680,"Gera","Thuringen","Germany",50.86,12.08,"+01:00",,0,0,
3682,"Gluckstadt","Schleswig-Holstein","Germany",53.78,9.41,"+01:00",,0,0,
3683,"Gotha","Thuringen","Germany",51.41,12.60,"+01:00",,0,0,
3684,"Gottelfingen","Baden-Wurttemberg","Germany",48.50,8.75,"+01:00",,0,0,
3685,"Greifswald","Mecklenburg-Vorpommern","Germany",54.10,13.38,"+01:00",,0,0,
3686,"Grunstadt","Rheinland-Pfalz","Germany",49.56,8.16,"+01:00",,0,0,
3687,"Gunzenhausen","Bayern","Germany",49.10,10.75,"+01:00",,0,0,
3688,"Hamburg","Hamburg","Germany",53.55,10.00,"+01:00",,0,0,
3689,"Hamm","Nordrhein-Westfalen","Germany",51.25,6.41,"+01:00",,0,0,
3690,"Helmstedt","Niedersachsen","Germany",52.23,11.00,"+01:00",,0,0,
3691,"Herford","Nordrhein-Westfalen","Germany",52.13,8.68,"+01:00",,0,0,
3692,"Hof","Bayern","Germany",50.23,11.20,"+01:00",,0,0,
3695,"Kaiserslautern","Rheinland-Pfalz","Germany",49.45,7.75,"+01:00",,0,0,
3696,"Kleve","Nordrhein-Westfalen","Germany",51.78,6.15,"+01:00",,0,0,
3697,"Koblenz","Rheinland-Pfalz","Germany",50.35,7.60,"+01:00",,0,0,
3698,"Koenigs Wusterhausen","Berlin","Germany",49.15,10.53,"+01:00",,0,0,
3699,"Krefeld","Nordrhein-Westfalen","Germany",51.33,6.56,"+01:00",,0,0,
3700,"Kubelstein Stadt Schesslitz","Bayern","Germany",49.98,11.13,"+01:00",,0,0,
3701,"Kusel","Rheinland-Pfalz","Germany",49.55,7.40,"+01:00",,0,0,
3702,"Leinfelden-Echterdingen","Baden-Wurttemberg","Germany",48.70,9.15,"+01:00",,0,0,
3703,"Leipzig","Sachsen","Germany",51.30,12.33,"+01:00",,0,0,
3704,"Lengerich","Nordrhein-Westfalen","Germany",52.18,7.86,"+01:00",,0,0,
3705,"Leonberg","Baden-Wurttemberg","Germany",49.95,12.28,"+01:00",,0,0,
3706,"Lichtenfels","Bayern","Germany",50.15,11.06,"+01:00",,0,0,
3707,"Linz Am Rhein","Rheinland-Pfalz","Germany",50.56,7.28,"+01:00",,0,0,
3708,"Lubeck","Schleswig-Holstein","Germany",53.86,10.70,"+01:00",,0,0,
3709,"Ludinghausen","Nordrhein-Westfalen","Germany",51.76,7.46,"+01:00",,0,0,
3710,"Ludwigshafen Am Rhein","Rheinland-Pfalz","Germany",49.47,8.44,"+01:00",,0,0,
3711,"Lutherstadt Wittenberg","Sachsen-Anhalt","Germany",51.86,12.65,"+01:00",,0,0,
3712,"Mainz","Rheinland-Pfalz","Germany",49.99,8.27,"+01:00",,0,0,
3713,"Malsch","Baden-Wurttemberg","Germany",48.88,8.33,"+01:00",,0,0,
3714,"Mannheim","Baden-Wurttemberg","Germany",49.48,8.46,"+01:00",,0,0,
3715,"Marbach Am Neckar","Baden-Wurttemberg","Germany",48.93,9.25,"+01:00",,0,0,
3717,"Marl","Nordrhein-Westfalen","Germany",51.65,7.08,"+01:00",,0,0,
3718,"Melsungen","Hessen","Germany",51.13,9.55,"+01:00",,0,0,
3719,"Memmingen","Bayern","Germany",47.98,10.16,"+01:00",,0,0,
3720,"Meßstetten","Baden-Wurttemberg","Germany",48.17,8.95,"+01:00",,0,0,
3721,"Morzheim","Rheinland-Pfalz","Germany",49.16,8.07,"+01:00",,0,0,
3722,"Munich","Bayern","Germany",48.15,11.58,"+01:00",,0,0,
3723,"Munster","Nordrhein-Westfalen","Germany",51.96,7.63,"+01:00",,0,0,
3725,"Neu Ulm","Bayern","Germany",48.40,10.01,"+01:00",,0,0,
3727,"Neustadt An Der Waldnaab","Bayern","Germany",49.73,12.16,"+01:00",,0,0,
3728,"Nienburg","Niedersachsen","Germany",52.63,9.21,"+01:00",,0,0,
3729,"Ofterdingen","Baden-Wurttemberg","Germany",48.41,9.03,"+01:00",,0,0,
3730,"Osnabruck","Niedersachsen","Germany",52.26,8.05,"+01:00",,0,0,
3731,"Paderborn","Nordrhein-Westfalen","Germany",51.71,8.76,"+01:00",,0,0,
3732,"Passau","Bayern","Germany",48.58,13.48,"+01:00",,0,0,
3733,"Pfaffenweiler","Baden-Wurttemberg","Germany",47.78,9.86,"+01:00",,0,0,
3734,"Pinneberg","Schleswig-Holstein","Germany",53.65,9.80,"+01:00",,0,0,
3735,"Porta Westfalica","Nordrhein-Westfalen","Germany",52.21,8.93,"+01:00",,0,0,
3736,"Potsdam","Brandenburg","Germany",52.40,13.06,"+01:00",,0,0,
3737,"Rastatt","Baden-Wurttemberg","Germany",48.85,8.20,"+01:00",,0,0,
3738,"Ratingen","Nordrhein-Westfalen","Germany",51.30,6.85,"+01:00",,0,0,
3739,"Regensburg","Bayern","Germany",49.01,12.10,"+01:00",,0,0,
3740,"Rheinsberg","Brandenburg","Germany",53.10,12.88,"+01:00",,0,0,
3741,"Rodental","Bremen","Germany",50.28,11.06,"+01:00",,0,0,
3742,"Saarbrucken","Saarland","Germany",49.23,7.00,"+01:00",,0,0,
3743,"Schaumburg","Rheinland-Pfalz","Germany",50.33,7.98,"+01:00",,0,0,
3744,"Schifferstadt","Rheinland-Pfalz","Germany",49.38,8.37,"+01:00",,0,0,
3745,"Schledehausen","Niedersachsen","Germany",52.28,8.25,"+01:00",,0,0,
3746,"Schwabisch Gmund","Baden-Wurttemberg","Germany",48.80,9.78,"+01:00",,0,0,
3747,"Schwerin","Mecklenburg-Vorpommern","Germany",53.63,11.38,"+01:00",,0,0,
3748,"Schwieberdingen","Baden-Wurttemberg","Germany",48.88,9.06,"+01:00",,0,0,
3749,"Seevetal","Niedersachsen","Germany",53.40,9.96,"+01:00",,0,0,
3750,"Soltau","Niedersachsen","Germany",52.98,9.83,"+01:00",,0,0,
3752,"Stade","Niedersachsen","Germany",53.60,9.48,"+01:00",,0,0,
3753,"Stuttgart","Baden-Wurttemberg","Germany",48.76,9.18,"+01:00",,0,0,
3754,"Sulzfeld","Baden-Wurttemberg","Germany",49.10,8.85,"+01:00",,0,0,
3755,"Tirschenreuth","Bayern","Germany",49.88,12.35,"+01:00",,0,0,
3756,"Trier","Rheinland-Pfalz","Germany",49.75,6.63,"+01:00",,0,0,
3757,"Trossingen","Baden-Wurttemberg","Germany",48.06,8.65,"+01:00",,0,0,
3758,"Tubingen","Baden-Wurttemberg","Germany",48.53,9.05,"+01:00",,0,0,
3759,"Ulm","Baden-Wurttemberg","Germany",48.73,8.01,"+01:00",,0,0,
3761,"Walldorf","Baden-Wurttemberg","Germany",49.30,8.64,"+01:00",,0,0,
3762,"WASSERBURG","Bayern","Germany",48.43,10.26,"+01:00",,0,0,
3763,"Weimar","Thuringen","Germany",51.36,9.40,"+01:00",,0,0,
3764,"Wesel","Nordrhein-Westfalen","Germany",51.66,6.61,"+01:00",,0,0,
3765,"Wiernsheim","Baden-Wurttemberg","Germany",48.88,8.85,"+01:00",,0,0,
3766,"Wiesloch","Baden-Wurttemberg","Germany",49.29,8.70,"+01:00",,0,0,
3767,"Wilhelmshaven","Niedersachsen","Germany",53.51,8.13,"+01:00",,0,0,
3768,"Winterlingen","Baden-Wurttemberg","Germany",48.18,9.11,"+01:00",,0,0,
3769,"Wittmund","Niedersachsen","Germany",53.56,7.78,"+01:00",,0,0,
3770,"Wolfach","Baden-Wurttemberg","Germany",48.30,8.21,"+01:00",,0,0,
3771,"Wolfenbuttel","Niedersachsen","Germany",52.16,10.55,"+01:00",,0,0,
3772,"Worms","Rheinland-Pfalz","Germany",49.63,8.36,"+01:00",,0,0,
3773,"WURZBURG","Bayern","Germany",49.79,9.94,"+01:00",,0,0,
3774,"Zittau","Sachsen","Germany",50.90,14.83,"+01:00",,0,0,
3775,"Zweibrucken","Rheinland-Pfalz","Germany",49.25,7.36,"+01:00",,0,0,
3776,"Aalborg","Nordjylland","Denmark",57.05,9.93,"+01:00",,0,0,
3777,"Ebeltoft","Arhus","Denmark",56.20,10.68,"+01:00",,0,0,
3778,"Haderslev","Sonderjylland","Denmark",55.25,9.50,"+01:00",,0,0,
3780,"Odense","Fyn","Denmark",55.40,10.38,"+01:00",,0,0,
3781,"Rodding","Sonderjylland","Denmark",55.36,9.06,"+01:00",,0,0,
3782,"Varde","Ribe","Denmark",55.63,8.48,"+01:00",,0,0,
3783,"La Romana","La Romana","Dominican Republic",19.06,-70.35,"-04:00",,0,0,
3784,"Santiago","Santiago","Dominican Republic",19.45,-70.70,"-04:00",,0,0,
3786,"Mascara","Mascara","Algeria",35.39,0.14,"+01:00",,0,0,
3787,"Cuenca","Azuay","Ecuador",-2.88,-78.98,"-05:00",,0,0,
3788,"Guaranda","Bolivar","Ecuador",-1.60,-79.00,"-05:00",,0,0,
3789,"Guayaquil","Guayas","Ecuador",-2.16,-79.90,"-05:00",,0,0,
3790,"Ibarra","Imbabura","Ecuador",0.35,-78.11,"-05:00",,0,0,
3791,"Latacunga","Cotopaxi","Ecuador",-0.93,-78.61,"-05:00",,0,0,
3792,"Quito","Pichincha","Ecuador",-0.21,-78.50,"-05:00",,0,0,
3793,"Riobamba","Chimborazo","Ecuador",-1.66,-78.63,"-05:00",,0,0,
3794,"Santo Domingo De Los Colorados","Pichincha","Ecuador",-0.25,-79.15,"-05:00",,0,0,
3795,"Parnu","Parnumaa","Estonia",58.37,24.51,"+02:00",,0,0,
3796,"Tartu","Tartumaa","Estonia",58.36,26.73,"+02:00",,0,0,
3797,"Alexandria","Suhaj","Egypt",31.20,29.90,"+01:00",,0,0,
3798,"Cairo","Al Qahirah","Egypt",30.05,31.25,"+01:00",,0,0,
3799,"Giza","Al Jizah","Egypt",30.00,31.17,"+01:00",,0,0,
3800,"Heliopolis","Al Qahirah","Egypt",30.10,31.33,"+01:00",,0,0,
3801,"Luxor","Qina","Egypt",25.68,32.65,"+01:00",,0,0,
3803,"Aledo","Murcia","Spain",37.80,-1.56,"+01:00",,0,0,
3804,"Aviles","Asturias","Spain",43.55,-5.92,"+01:00",,0,0,
3805,"Balaguer","Cataluña","Spain",41.78,0.81,"+01:00",,0,0,
3806,"Barcarrota","Extremadura","Spain",38.51,-6.85,"+01:00",,0,0,
3807,"Barcelona","Cataluña","Spain",41.38,2.18,"+01:00",,0,0,
3808,"Bilbao","Pais Vasco","Spain",43.25,-2.96,"+01:00",,0,0,
3810,"Cadiz","Andalucia","Spain",36.53,-6.29,"+01:00",,0,0,
3811,"Ciudadela","Islas Baleares","Spain",40.03,3.83,"+01:00",,0,0,
3812,"El Puerto De Santa Maria","Andalucia","Spain",36.60,-6.23,"+01:00",,0,0,
3814,"Gijon","Asturias","Spain",43.54,-5.66,"+01:00",,0,0,
3815,"Granada","Andalucia","Spain",37.18,-3.60,"+01:00",,0,0,
3816,"Huelva","Andalucia","Spain",37.25,-6.95,"+01:00",,0,0,
3817,"Las Palmas de Gran Canaria","Canarias","Spain",28.10,-15.41,"+01:00",,0,0,
3818,"Madrid","Madrid","Spain",40.40,-3.68,"+01:00",,0,0,
3819,"Malaga","Andalucia","Spain",36.71,-4.41,"+01:00",,0,0,
3820,"Murcia","Murcia","Spain",37.98,-1.11,"+01:00",,0,0,
3821,"Oviedo","Asturias","Spain",43.36,-5.83,"+01:00",,0,0,
3822,"Palma de Mallorca","Islas Baleares","Spain",39.56,2.65,"+01:00",,0,0,
3823,"Petra","Islas Baleares","Spain",39.61,3.10,"+01:00",,0,0,
3826,"Santa Fe","Andalucia","Spain",36.96,-2.53,"+01:00",,0,0,
3828,"Sevilla","Andalucia","Spain",37.37,-5.98,"+01:00",,0,0,
3829,"Toledo","Castilla-La Mancha","Spain",39.86,-4.01,"+01:00",,0,0,
3830,"Tres Cantos","Madrid","Spain",40.60,-3.70,"+01:00",,0,0,
3831,"Yecla","Murcia","Spain",38.61,-1.11,"+01:00",,0,0,
3832,"Axum","Tigray","Ethiopia",14.13,38.71,"+03:00",,0,0,
3833,"Alajarvi","Lansi-Suomen Laani","Finland",63.00,23.81,"+02:00",,0,0,
3834,"Heinola","Etela-Suomen Laani","Finland",61.21,26.03,"+02:00",,0,0,
3835,"Jakobstad","Lansi-Suomen Laani","Finland",63.66,22.70,"+02:00",,0,0,
3836,"Jarvenpaa","Oulu Laani","Finland",65.63,27.41,"+02:00",,0,0,
3837,"Kokkola","Lansi-Suomen Laani","Finland",63.83,23.11,"+02:00",,0,0,
3838,"Kuopio","Ita-Suomen Laani","Finland",62.90,27.68,"+02:00",,0,0,
3839,"Lappeenranta","Etela-Suomen Laani","Finland",61.06,28.18,"+02:00",,0,0,
3840,"Lapua","Lansi-Suomen Laani","Finland",62.95,23.00,"+02:00",,0,0,
3841,"Porvoo","Etela-Suomen Laani","Finland",60.40,25.66,"+02:00",,0,0,
3842,"Rovaniemi","Lappi","Finland",66.50,25.71,"+02:00",,0,0,
3843,"Salo","Oulu Laani","Finland",65.20,29.28,"+02:00",,0,0,
3844,"Seinajoki","Lansi-Suomen Laani","Finland",62.80,22.83,"+02:00",,0,0,
3845,"Tampere","Etela-Suomen Laani","Finland",61.50,23.75,"+02:00",,0,0,
3846,"Nailuva","Central","Fiji",-17.60,178.11,"+12:00",,0,0,
3847,"Albertville","Rhone-Alpes","France",45.68,6.38,"+01:00",,0,0,
3848,"Albi","Midi-Pyrenees","France",43.93,2.15,"+01:00",,0,0,
3849,"Angouleme","Poitou-Charentes","France",45.65,0.15,"+01:00",,0,0,
3850,"Antibes","Provence-Alpes-Cote d'Azur","France",43.58,7.11,"+01:00",,0,0,
3851,"Arcachon","Aquitaine","France",44.65,-1.16,"+01:00",,0,0,
3852,"Arles","Languedoc-Roussillon","France",42.45,2.63,"+01:00",,0,0,
3853,"Aubigny-sur-Nere","Centre","France",47.48,2.43,"+01:00",,0,0,
3854,"Avignon","Provence-Alpes-Cote d'Azur","France",43.95,4.81,"+01:00",,0,0,
3855,"Bar-sur-Loup","Nord-Pas-de-Calais","France",43.70,6.99,"+01:00",,0,0,
3856,"Bayonne","Aquitaine","France",43.48,-1.48,"+01:00",,0,0,
3857,"Belfort","Franche-Comte","France",42.83,2.05,"+01:00",,0,0,
3858,"Biarritz","Aquitaine","France",43.48,-1.56,"+01:00",,0,0,
3859,"Billom","Auvergne","France",45.71,3.35,"+01:00",,0,0,
3860,"Bordeaux","Aquitaine","France",44.83,-0.56,"+01:00",,0,0,
3861,"Boulogne-Billancourt","Ile-De-France","France",48.83,2.25,"+01:00",,0,0,
3862,"Brest","Bretagne","France",48.40,-4.48,"+01:00",,0,0,
3863,"Bruyeres","Bourgogne","France",47.80,3.46,"+01:00",,0,0,
3864,"Caen","Basse-Normandie","France",49.18,-0.35,"+01:00",,0,0,
3865,"Calais","Nord-Pas-de-Calais","France",44.98,0.96,"+01:00",,0,0,
3866,"Cambrai","Nord-Pas-de-Calais","France",50.16,3.23,"+01:00",,0,0,
3867,"Cannes","Provence-Alpes-Cote d'Azur","France",43.55,7.01,"+01:00",,0,0,
3868,"Cavaliere Sur Mer","Provence-Alpes-Cote d'Azur","France",43.17,6.53,"+01:00",,0,0,
3869,"Cergy-Pontoise","Ile-De-France","France",49.00,2.03,"+01:00",,0,0,
3870,"Chambolle-Musigny","Bourgogne","France",47.18,4.94,"+01:00",,0,0,
3871,"Chamonix","Nord-Pas-de-Calais","France",45.91,6.86,"+01:00",,0,0,
3872,"Chavaniac","Auvergne","France",45.15,3.58,"+01:00",,0,0,
3873,"Clermont-Ferrand","Auvergne","France",45.78,3.08,"+01:00",,0,0,
3874,"Coex","Pays de la Loire","France",46.68,-1.76,"+01:00",,0,0,
3875,"Cognac","Limousin","France",45.83,1.00,"+01:00",,0,0,
3876,"Colmar","Alsace","France",48.08,7.36,"+01:00",,0,0,
3877,"Compiegne","Picardie","France",49.41,2.83,"+01:00",,0,0,
3878,"Courchevel","Rhone-Alpes","France",45.41,6.65,"+01:00",,0,0,
3879,"Deauville","Basse-Normandie","France",49.36,0.06,"+01:00",,0,0,
3880,"Dijon","Bourgogne","France",47.31,5.01,"+01:00",,0,0,
3881,"Douai","Nord-Pas-de-Calais","France",50.36,3.06,"+01:00",,0,0,
3883,"Eguisheim","Alsace","France",48.05,7.30,"+01:00",,0,0,
3884,"Entrains-Sur-Nohain","Bourgogne","France",47.45,3.25,"+01:00",,0,0,
3885,"Fourmies","Nord-Pas-de-Calais","France",50.00,4.05,"+01:00",,0,0,
3886,"Frejus","Provence-Alpes-Cote d'Azur","France",44.93,6.53,"+01:00",,0,0,
3887,"Geispolsheim","Alsace","France",48.51,7.64,"+01:00",,0,0,
3888,"Grenoble","Rhone-Alpes","France",45.16,5.71,"+01:00",,0,0,
3889,"Henin-Beaumont","Alsace","France",50.41,2.93,"+01:00",,0,0,
3890,"La Garde-Freinet","Provence-Alpes-Cote d'Azur","France",43.31,6.47,"+01:00",,0,0,
3891,"La Rochelle","Poitou-Charentes","France",48.76,-1.43,"+01:00",,0,0,
3892,"La Teste","Aquitaine","France",44.63,-1.15,"+01:00",,0,0,
3893,"La Vergne","Auvergne","France",45.05,2.38,"+01:00",,0,0,
3894,"La Verpilliere","Rhone-Alpes","France",45.63,5.15,"+01:00",,0,0,
3895,"Langeac","Auvergne","France",45.10,3.48,"+01:00",,0,0,
3896,"Le Cannet","Provence-Alpes-Cote d'Azur","France",43.40,6.35,"+01:00",,0,0,
3897,"Le Havre","Haute-Normandie","France",49.50,0.13,"+01:00",,0,0,
3898,"Le Toquet","Picardie","France",50.10,1.80,"+01:00",,0,0,
3899,"Le Vesinet","Ile-De-France","France",48.90,2.11,"+01:00",,0,0,
3900,"Le Bourget","Ile-De-France","France",48.93,2.42,"+01:00",,0,0,
3901,"Limoges","Limousin","France",45.85,1.25,"+01:00",,0,0,
3902,"Longvic","Bourgogne","France",47.28,5.06,"+01:00",,0,0,
3903,"Luray","Centre","France",48.71,1.40,"+01:00",,0,0,
3905,"Macon","Bourgogne","France",46.30,4.83,"+01:00",,0,0,
3906,"Marcq-En-Baroeul","Nord-Pas-de-Calais","France",50.66,3.08,"+01:00",,0,0,
3907,"Metz","Lorraine","France",49.13,6.16,"+01:00",,0,0,
3908,"Mimizan","Aquitaine","France",44.20,-1.23,"+01:00",,0,0,
3909,"Montbeliard","Franche-Comte","France",47.51,6.80,"+01:00",,0,0,
3910,"Montelimar","Provence-Alpes-Cote d'Azur","France",44.56,4.75,"+01:00",,0,0,
3911,"Montgeron","Ile-De-France","France",48.70,2.45,"+01:00",,0,0,
3912,"Montpellier","Languedoc-Roussillon","France",43.60,3.88,"+01:00",,0,0,
3913,"Nancy","Lorraine","France",48.68,6.20,"+01:00",,0,0,
3914,"Nantes","Pays de la Loire","France",47.21,-1.55,"+01:00",,0,0,
3915,"Neuilly-Plaisance","Ile-De-France","France",48.86,2.51,"+01:00",,0,0,
3916,"Nice","Provence-Alpes-Cote d'Azur","France",43.70,7.25,"+01:00",,0,0,
3918,"Orange","Provence-Alpes-Cote d'Azur","France",44.13,4.80,"+01:00",,0,0,
3919,"Orleans","Centre","France",47.91,1.90,"+01:00",,0,0,
3920,"Pau","Aquitaine","France",43.30,-0.36,"+01:00",,0,0,
3921,"Peronne","Basse-Normandie","France",50.56,3.16,"+01:00",,0,0,
3922,"Perpignan","Languedoc-Roussillon","France",42.68,2.88,"+01:00",,0,0,
3923,"Pontivy","Bretagne","France",48.06,-2.98,"+01:00",,0,0,
3924,"Rennes","Bretagne","France",48.08,-1.68,"+01:00",,0,0,
3925,"Rombas","Lorraine","France",49.25,6.08,"+01:00",,0,0,
3926,"Romorantin","Centre","France",47.36,1.75,"+01:00",,0,0,
3927,"Saint Avold","Lorraine","France",49.10,6.71,"+01:00",,0,0,
3928,"Saint Etienne","Rhone-Alpes","France",45.25,4.78,"+01:00",,0,0,
3929,"Saint Mande","Ile-De-France","France",48.84,2.41,"+01:00",,0,0,
3930,"Saint-Clar","Midi-Pyrenees","France",43.46,1.21,"+01:00",,0,0,
3932,"Senonches","Centre","France",48.55,1.03,"+01:00",,0,0,
3933,"Saint Cloud","Ile-De-France","France",48.84,2.21,"+01:00",,0,0,
3934,"Saint Cyr Sur Loire","Centre","France",47.40,0.66,"+01:00",,0,0,
3935,"Saint-Germain-en-Laye","Centre","France",48.89,2.09,"+01:00",,0,0,
3936,"Strasbourg","Alsace","France",48.58,7.75,"+01:00",,0,0,
3937,"Toulon","Poitou-Charentes","France",46.48,0.63,"+01:00",,0,0,
3938,"Toulouse","Midi-Pyrenees","France",43.60,1.43,"+01:00",,0,0,
3939,"Tours","Centre","France",45.66,3.58,"+01:00",,0,0,
3940,"Vendome","Poitou-Charentes","France",46.17,-1.15,"+01:00",,0,0,
3941,"Vichy","Bourgogne","France",46.11,3.41,"+01:00",,0,0,
3942,"Vincennes","Ile-De-France","France",48.85,2.43,"+01:00",,0,0,
3943,"Vitre","Poitou-Charentes","France",46.28,-0.20,"+01:00",,0,0,
3944,"Bat'umi","Ajaria","Georgia",41.63,41.63,"+04:00",,0,0,
3945,"Mtskheta","Mtskheta-Mtianeti","Georgia",41.85,44.71,"+04:00",,0,0,
3946,"P'ot'I","Samegrelo-Zemo Svateni","Georgia",42.15,41.66,"+04:00",,0,0,
3947,"Tbilisi","T'bilisi","Georgia",41.70,44.80,"+04:00",,0,0,
3948,"T'elavi","Kakheti","Georgia",41.91,45.46,"+04:00",,0,0,
3949,"Accra","Greater Accra","Ghana",5.55,-0.21,"+00:00",,0,0,
3950,"Bolgatanga","Upper East","Ghana",10.78,-0.85,"+00:00",,0,0,
3951,"Cape Coast","Central","Ghana",5.10,-1.25,"+00:00",,0,0,
3952,"Ga District","Upper East","Ghana",9.81,-0.45,"+00:00",,0,0,
3953,"Kumasi","Ashanti","Ghana",4.85,-2.08,"+00:00",,0,0,
3954,"Oyoko","Eastern","Ghana",6.13,-0.28,"+00:00",,0,0,
3956,"Tamale","Northern","Ghana",9.40,-0.83,"+00:00",,0,0,
3957,"Tema","Greater Accra","Ghana",5.61,-0.01,"+00:00",,0,0,
3958,"Banjul","Banjul","The Gambia",13.45,-16.57,"+00:00",,0,0,
3959,"Kanifing","Western","The Gambia",13.44,-16.67,"+00:00",,0,0,
3960,"Conakry","Conakry","Guinea",9.51,-13.71,"+00:00",,0,0,
3961,"Lamentin","Guadeloupe","Guadeloupe",16.26,-61.61,"-04:00",,0,0,
3963,"Athens","Attiki","Greece",37.98,23.73,"+02:00",,0,0,
3964,"Corinth","Korinthia","Greece",37.93,22.93,"+02:00",,0,0,
3965,"Kalamaria","Thessaloniki","Greece",40.58,22.96,"+02:00",,0,0,
3966,"Kozani","Kozani","Greece",40.29,21.78,"+02:00",,0,0,
3967,"Lamia","Magnisia","Greece",38.90,22.43,"+02:00",,0,0,
3969,"Navplion","Argolis","Greece",37.56,22.80,"+02:00",,0,0,
3970,"Patras","Akhaia","Greece",38.25,21.73,"+02:00",,0,0,
3971,"Piraeus","Attiki","Greece",37.95,23.63,"+02:00",,0,0,
3972,"Thessaloniki","Thessaloniki","Greece",40.63,22.93,"+02:00",,0,0,
3973,"Trikala","Trikala","Greece",38.00,22.46,"+02:00",,0,0,
3974,"Tripolis","Kilkis","Greece",37.51,22.36,"+02:00",,0,0,
3975,"Zakinthos","Zakinthos","Greece",37.78,20.90,"+02:00",,0,0,
3976,"Antigua","Quetzaltenango","Guatemala",14.56,-90.73,"-06:00",,0,0,
3977,"Chichicastenango","Quiche","Guatemala",14.93,-91.11,"-06:00",,0,0,
3978,"Coban","Zacapa","Guatemala",14.75,-89.76,"-06:00",,0,0,
3979,"Cuilapa","Santa Rosa","Guatemala",14.28,-90.30,"-06:00",,0,0,
3980,"Escuintla","Escuintla","Guatemala",14.30,-90.78,"-06:00",,0,0,
3982,"Jalapa","Jalapa","Guatemala",14.63,-89.98,"-06:00",,0,0,
3983,"Jutiapa","Jutiapa","Guatemala",14.28,-89.90,"-06:00",,0,0,
3984,"PUERTO BARRIOS","Izabal","Guatemala",15.71,-88.60,"-06:00",,0,0,
3985,"Quezaltenango","Quetzaltenango","Guatemala",14.83,-91.51,"-06:00",,0,0,
3986,"SAN JUAN SACATEPEQUEZ","Guatemala","Guatemala",14.71,-90.65,"-06:00",,0,0,
3987,"SANTA CRUZ DEL QUICHE","Quiche","Guatemala",15.03,-91.14,"-06:00",,0,0,
3989,"SOLOLA","Solola","Guatemala",14.76,-91.18,"-06:00",,0,0,
3990,"ZACAPA","Zacapa","Guatemala",14.96,-89.53,"-06:00",,0,0,
3991,"Georgetown","Demerara-Mahaica","Guyana",6.80,-58.16,"-03:00",,0,0,
3992,"Juticalpa","Olancho","Honduras",14.65,-86.20,"-06:00",,0,0,
3993,"TEGUCIGALPA","Francisco Morazan","Honduras",14.10,-87.21,"-06:00",,0,0,
3994,"Karlovac","Splitsko-Dalmatinska","Croatia",45.70,18.10,"+01:00",,0,0,
3995,"Komiza","Splitsko-Dalmatinska","Croatia",43.04,16.09,"+01:00",,0,0,
3996,"Split","Splitsko-Dalmatinska","Croatia",43.51,16.45,"+01:00",,0,0,
3997,"Zagreb","Grad Zagreb","Croatia",45.80,16.00,"+01:00",,0,0,
3998,"Jacmel","Sud-Est","Haiti",18.23,-72.53,"-05:00",,0,0,
3999,"PETIT GOAVE","Ouest","Haiti",18.43,-72.86,"-05:00",,0,0,
4000,"PORT-AU-PRINCE","Ouest","Haiti",18.53,-72.33,"-05:00",,0,0,
4001,"Budapest","Budapest","Hungary",47.50,19.08,"+01:00",,0,0,
4002,"Debrecen","Hajdu-Bihar","Hungary",47.53,21.63,"+01:00",,0,0,
4003,"Jaszbereny","Jasz-Nagykun-Szolnok","Hungary",47.50,19.91,"+01:00",,0,0,
4004,"Pecs","Baranya","Hungary",46.08,18.23,"+01:00",,0,0,
4005,"Siofok","Somogy","Hungary",46.90,18.05,"+01:00",,0,0,
4006,"Szeged","Csongrad","Hungary",46.25,20.16,"+01:00",,0,0,
4007,"Szekesfehervar","Fejer","Hungary",47.29,18.32,"+01:00",,0,0,
4008,"Szolnok","Jasz-Nagykun-Szolnok","Hungary",47.18,20.20,"+01:00",,0,0,
4009,"Bandung","Jawa Barat (Djawa Barat)","Indonesia",-8.16,111.78,"+08:00",,0,0,
4010,"Jakarta","Jakarta Raya (Djakarta Raya)","Indonesia",-6.16,106.80,"+08:00",,0,0,
4011,"Surabaya","Jawa Timur (Djawa Timur)","Indonesia",-7.25,112.75,"+08:00",,0,0,
4013,"Cork","Cork","Ireland",51.89,-8.49,"+00:00",,0,0,
4015,"Dublin","Dublin","Ireland",53.33,-6.25,"+00:00",,0,0,
4016,"Ennis","Clare","Ireland",52.84,-8.98,"+00:00",,0,0,
4017,"Enniscorthy","Donegal","Ireland",52.50,-6.55,"+00:00",,0,0,
4018,"Galway","Galway","Ireland",53.27,-9.04,"+00:00",,0,0,
4019,"Killarney","Kerry","Ireland",52.05,-9.49,"+00:00",,0,0,
4020,"Limerick","Limerick","Ireland",52.66,-8.62,"+00:00",,0,0,
4021,"Listowel","Kerry","Ireland",52.44,-9.48,"+00:00",,0,0,
4022,"Longford","Cork","Ireland",53.12,-7.49,"+00:00",,0,0,
4023,"New Ross","Wexford","Ireland",52.39,-6.93,"+00:00",,0,0,
4025,"Sligo","Sligo","Ireland",54.26,-8.48,"+00:00",,0,0,
4026,"Tralee","Kerry","Ireland",52.26,-9.71,"+00:00",,0,0,
4027,"Waterford","Waterford","Ireland",52.25,-7.11,"+00:00",,0,0,
4028,"Afula","Haûafon  (Northern)","Israel",32.61,35.29,"+02:00",,0,0,
4029,"Akko","Haûafon  (Northern)","Israel",32.92,35.07,"+02:00",,0,0,
4034,"Bethshemesh","Híefa  (Haifa)","Israel",32.72,35.17,"+02:00",,0,0,
4035,"Eilat","HaDarom (Southern)","Israel",29.55,34.95,"+02:00",,0,0,
4036,"Givatayim","Tel Aviv","Israel",32.07,34.81,"+02:00",,0,0,
4037,"Haifa","Híefa  (Haifa)","Israel",32.81,34.98,"+02:00",,0,0,
4038,"Hatzor","Híefa  (Haifa)","Israel",31.76,34.71,"+02:00",,0,0,
4039,"Herzliyya","Tel Aviv","Israel",32.16,34.83,"+02:00",,0,0,
4041,"Karmi'el","Haûafon  (Northern)","Israel",32.91,35.30,"+02:00",,0,0,
4044,"Kiryat Ekron","Tel Aviv","Israel",32.04,34.77,"+02:00",,0,0,
4045,"Kiryat Motzkin","Híefa  (Haifa)","Israel",32.04,34.77,"+02:00",,0,0,
4046,"Petah Tiqva","HaMerkaz (Central)","Israel",32.08,34.87,"+02:00",,0,0,
4047,"Raanana","HaMerkaz (Central)","Israel",32.18,34.86,"+02:00",,0,0,
4048,"Ramat Gan","Tel Aviv","Israel",32.08,34.81,"+02:00",,0,0,
4049,"Ramat Hasharon","Tel Aviv","Israel",32.14,34.84,"+02:00",,0,0,
4050,"Rehovot","HaMerkaz (Central)","Israel",31.89,34.81,"+02:00",,0,0,
4051,"Rishon Le Zion","Tel Aviv","Israel",31.96,34.80,"+02:00",,0,0,
4052,"Safed","Haûafon  (Northern)","Israel",32.96,35.49,"+02:00",,0,0,
4054,"Tiberias","Híefa  (Haifa)","Israel",32.79,35.52,"+02:00",,0,0,
4055,"Yavne","Yerushalayim  (Jerusalem)","Israel",31.86,34.75,"+02:00",,0,0,
4056,"Yehud","HaMerkaz (Central)","Israel",32.03,34.88,"+02:00",,0,0,
4057,"Yeroham","HaDarom (Southern)","Israel",31.00,34.91,"+02:00",,0,0,
4058,"Bangalore","Karnataka","India",12.98,77.58,"+05:50",,0,0,
4060,"Jaipur","Rajasthan","India",26.91,75.81,"+05:50",,0,0,
4062,"Pune","Maharashtra","India",18.53,73.86,"+05:50",,0,0,
4063,"Salem","Tamil Nadu","India",11.65,78.16,"+05:50",,0,0,
4064,"Simla","Himachal Pradesh","India",31.10,77.16,"+05:50",,0,0,
4065,"Vijayawada","Andhra Pradesh","India",16.51,80.61,"+05:50",,0,0,
4066,"Tehran","Tehran","Iran",35.67,51.42,"+03:50",,0,0,
4068,"Reykjavík","Reykjavik","Iceland",64.15,-21.95,"+00:00",,0,0,
4069,"Agrigento","Sicilia","Italy",37.31,13.56,"+01:00",,0,0,
4070,"Alba","Piemonte","Italy",44.70,8.03,"+01:00",,0,0,
4071,"Amalfi","Campania","Italy",40.63,14.60,"+01:00",,0,0,
4072,"Assisi","Umbria","Italy",43.06,12.61,"+01:00",,0,0,
4074,"Asti","Piemonte","Italy",44.90,8.20,"+01:00",,0,0,
4075,"Bergamo","Lombardia","Italy",45.68,9.71,"+01:00",,0,0,
4076,"Bologna","Emilia-Romagna","Italy",44.48,11.33,"+01:00",,0,0,
4077,"Caltanissetta","Sicilia","Italy",37.48,14.06,"+01:00",,0,0,
4078,"Cantu","Lombardia","Italy",45.73,9.13,"+01:00",,0,0,
4079,"Capurso","Puglia","Italy",41.05,16.91,"+01:00",,0,0,
4081,"Cisterna","Lazio","Italy",41.58,12.81,"+01:00",,0,0,
4082,"Cosenza","Calabria","Italy",39.30,16.25,"+01:00",,0,0,
4083,"Cremona","Lombardia","Italy",45.11,10.03,"+01:00",,0,0,
4085,"Ferrara","Emilia-Romagna","Italy",44.83,11.58,"+01:00",,0,0,
4086,"Fiesole","Toscana","Italy",43.80,11.28,"+01:00",,0,0,
4088,"Florence","Toscana","Italy",43.76,11.25,"+01:00",,0,0,
4089,"Floridia","Sicilia","Italy",37.08,15.15,"+01:00",,0,0,
4090,"Gaeta","Campania","Italy",41.20,13.58,"+01:00",,0,0,
4091,"Genoa","Liguria","Italy",44.41,8.95,"+01:00",,0,0,
4092,"Greve","Toscana","Italy",43.58,11.31,"+01:00",,0,0,
4094,"Imperia","Liguria","Italy",43.88,8.05,"+01:00",,0,0,
4095,"Ivrea","Piemonte","Italy",45.46,7.86,"+01:00",,0,0,
4096,"La Spezia","Liguria","Italy",44.11,9.83,"+01:00",,0,0,
4097,"Lodi","Lombardia","Italy",45.31,9.50,"+01:00",,0,0,
4098,"Lonate Pozzolo","Lombardia","Italy",45.60,8.75,"+01:00",,0,0,
4099,"Lucca","Toscana","Italy",43.83,10.48,"+01:00",,0,0,
4100,"Marino","Lazio","Italy",41.76,12.65,"+01:00",,0,0,
4102,"Milazzo","Sicilia","Italy",38.21,15.23,"+01:00",,0,0,
4103,"Modena","Emilia-Romagna","Italy",44.66,10.91,"+01:00",,0,0,
4105,"Monza","Lombardia","Italy",45.58,9.26,"+01:00",,0,0,
4106,"Noceto","Emilia-Romagna","Italy",44.80,10.18,"+01:00",,0,0,
4107,"Oristano","Sardegna","Italy",39.90,8.60,"+01:00",,0,0,
4109,"Paterno","Calabria","Italy",39.23,16.25,"+01:00",,0,0,
4110,"Pedavena","Veneto","Italy",46.03,11.88,"+01:00",,0,0,
4111,"Perugia","Umbria","Italy",43.13,12.36,"+01:00",,0,0,
4112,"Pescara","Abruzzi","Italy",42.46,14.21,"+01:00",,0,0,
4114,"Pinerolo","Piemonte","Italy",44.88,7.35,"+01:00",,0,0,
4115,"Pisa","Toscana","Italy",43.71,10.38,"+01:00",,0,0,
4116,"Potenza","Basilicata","Italy",40.63,15.80,"+01:00",,0,0,
4117,"Putignano","Puglia","Italy",40.85,17.11,"+01:00",,0,0,
4118,"Reggio Emilia","Emilia-Romagna","Italy",44.70,10.63,"+01:00",,0,0,
4119,"Ribera","Sicilia","Italy",37.50,13.26,"+01:00",,0,0,
4120,"Rimini","Emilia-Romagna","Italy",44.06,12.58,"+01:00",,0,0,
4121,"Rome","Lazio","Italy",41.90,12.48,"+01:00",,0,0,
4122,"San Benedetto Del Tronto","Marche","Italy",42.95,13.88,"+01:00",,0,0,
4123,"Sestri Levante","Liguria","Italy",44.26,9.40,"+01:00",,0,0,
4124,"Sorrento","Campania","Italy",40.61,14.36,"+01:00",,0,0,
4125,"Spoleto","Umbria","Italy",42.73,12.73,"+01:00",,0,0,
4126,"Terrasini","Sicilia","Italy",38.15,13.08,"+01:00",,0,0,
4127,"Torre Pellice","Piemonte","Italy",44.81,7.21,"+01:00",,0,0,
4128,"Viterbo","Lazio","Italy",42.41,12.10,"+01:00",,0,0,
4130,"Montego Bay","Saint James","Jamaica",18.46,-77.91,"-05:00",,0,0,
4131,"Morant Bay","Saint Thomas","Jamaica",17.88,-76.41,"-05:00",,0,0,
4132,"Ocho Rios","Saint Ann","Jamaica",18.41,-77.11,"-05:00",,0,0,
4134,"Amman","'Amman","Jordan",31.95,35.93,"+02:00",,0,0,
4135,"Madaba","Al Balqa'","Jordan",31.71,35.80,"+02:00",,0,0,
4136,"Akashi","Hyogo","Japan",34.63,134.98,"+09:00",,0,0,
4137,"Anjo","Aichi","Japan",34.95,137.08,"+09:00",,0,0,
4138,"Arita","Saga","Japan",33.18,129.90,"+09:00",,0,0,
4140,"Asahikawa","Hokkaido","Japan",43.76,142.36,"+09:00",,0,0,
4141,"Ashikaga","Tochigi","Japan",36.33,139.45,"+09:00",,0,0,
4142,"Ashiya","Hyogo","Japan",34.73,135.31,"+09:00",,0,0,
4143,"Aso","Gumma","Japan",35.71,136.10,"+09:00",,0,0,
4144,"Atsugi","Kanagawa","Japan",35.45,139.36,"+09:00",,0,0,
4146,"Beppu","Aomori","Japan",35.10,132.53,"+09:00",,0,0,
4147,"Chiba","Chiba","Japan",35.60,140.11,"+09:00",,0,0,
4148,"Chichibu","Saitama","Japan",35.98,139.08,"+09:00",,0,0,
4149,"Chino","Nagano","Japan",36.01,138.24,"+09:00",,0,0,
4150,"Chitose","Hokkaido","Japan",42.81,141.65,"+09:00",,0,0,
4151,"Choshi","Chiba","Japan",35.73,140.83,"+09:00",,0,0,
4153,"Ebetsu","Hokkaido","Japan",43.11,141.56,"+09:00",,0,0,
4154,"Fuji","Shizuoka","Japan",43.81,144.78,"+09:00",,0,0,
4155,"Fujinomiya","Shizuoka","Japan",35.21,138.61,"+09:00",,0,0,
4156,"Fujisawa","Kanagawa","Japan",35.35,139.48,"+09:00",,0,0,
4157,"Fujishiro","Ibaraki","Japan",35.91,140.11,"+09:00",,0,0,
4161,"Fukui","Fukui","Japan",36.06,136.21,"+09:00",,0,0,
4162,"Fukuoka","Fukuoka","Japan",33.58,130.40,"+09:00",,0,0,
4163,"Futtsu","Chiba","Japan",35.31,139.81,"+09:00",,0,0,
4164,"Gifu","Gifu","Japan",35.41,136.75,"+09:00",,0,0,
4165,"Gotemba","Shizuoka","Japan",35.30,138.93,"+09:00",,0,0,
4167,"Hadano","Kanagawa","Japan",35.36,139.23,"+09:00",,0,0,
4168,"Hanamaki","Iwate","Japan",39.38,141.11,"+09:00",,0,0,
4169,"Handa","Aichi","Japan",34.03,134.03,"+09:00",,0,0,
4170,"Hanno","Saitama","Japan",35.85,139.31,"+09:00",,0,0,
4171,"Hashimoto","Wakayama","Japan",34.31,135.61,"+09:00",,0,0,
4172,"Hekinan","Aichi","Japan",34.88,136.98,"+09:00",,0,0,
4173,"Higashimurayama","Tokyo","Japan",35.75,139.46,"+09:00",,0,0,
4174,"Higashiosaka","Osaka","Japan",34.66,135.58,"+09:00",,0,0,
4175,"Hikone","Shiga","Japan",35.25,136.25,"+09:00",,0,0,
4176,"Himeji","Hyogo","Japan",34.81,134.70,"+09:00",,0,0,
4177,"Hino","Tokyo","Japan",35.68,139.40,"+09:00",,0,0,
4178,"Hirara","Okinawa","Japan",24.80,125.28,"+09:00",,0,0,
4179,"Hiratsuka","Kanagawa","Japan",35.31,139.35,"+09:00",,0,0,
4180,"Hiroshima","Hiroshima","Japan",34.40,132.45,"+09:00",,0,0,
4182,"Hitachi","Ibaraki","Japan",36.63,140.60,"+09:00",,0,0,
4184,"Hondo","Kumamoto","Japan",32.45,130.20,"+09:00",,0,0,
4187,"Ichihara","Chiba","Japan",35.51,140.08,"+09:00",,0,0,
4188,"Ichikawa","Chiba","Japan",40.58,141.45,"+09:00",,0,0,
4189,"Ichikawadaimon","Yamanashi","Japan",35.56,138.50,"+09:00",,0,0,
4190,"Ikata","Chiba","Japan",34.21,133.06,"+09:00",,0,0,
4191,"Ikawa","Shizuoka","Japan",35.21,138.25,"+09:00",,0,0,
4192,"Imabari","Ehime","Japan",34.08,133.01,"+09:00",,0,0,
4193,"Imaichi","Shimane","Japan",35.36,132.76,"+09:00",,0,0,
4194,"Imazu","Hiroshima","Japan",34.16,132.21,"+09:00",,0,0,
4195,"Isahaya","Nagasaki","Japan",32.83,130.05,"+09:00",,0,0,
4197,"Isesaki","Gumma","Japan",36.31,139.20,"+09:00",,0,0,
4198,"Itayanagi","Aomori","Japan",40.70,140.45,"+09:00",,0,0,
4199,"Iwai","Mie","Japan",34.30,136.23,"+09:00",,0,0,
4200,"Iwaki","Fukushima","Japan",38.30,140.93,"+09:00",,0,0,
4201,"Iwakuni","Hiroshima","Japan",34.15,132.18,"+09:00",,0,0,
4202,"Iwamizawa","Hokkaido","Japan",43.20,141.76,"+09:00",,0,0,
4203,"Iwanuma","Miyagi","Japan",38.10,140.86,"+09:00",,0,0,
4204,"Iwata","Shizuoka","Japan",34.70,136.50,"+09:00",,0,0,
4205,"Izumo","Wakayama","Japan",33.46,135.80,"+09:00",,0,0,
4206,"Kagoshima","Kagoshima","Japan",31.60,130.55,"+09:00",,0,0,
4207,"Kaibara","Hyogo","Japan",35.13,135.08,"+09:00",,0,0,
4208,"Kaizuka","Osaka","Japan",34.45,135.35,"+09:00",,0,0,
4209,"Kakegawa","Shizuoka","Japan",34.76,138.01,"+09:00",,0,0,
4212,"Kameoka","Kyoto","Japan",35.00,135.58,"+09:00",,0,0,
4214,"Kanayama","Gifu","Japan",33.46,131.50,"+09:00",,0,0,
4215,"Kanazawa","Ishikawa","Japan",36.56,136.65,"+09:00",,0,0,
4218,"Kashiwa","Chiba","Japan",32.78,128.66,"+09:00",,0,0,
4219,"Kasugai","Aichi","Japan",35.23,136.98,"+09:00",,0,0,
4220,"Kawagoe","Saitama","Japan",35.91,139.48,"+09:00",,0,0,
4221,"Kawanishi","Hyogo","Japan",34.81,135.41,"+09:00",,0,0,
4222,"Kawasaki","Kanagawa","Japan",38.16,140.63,"+09:00",,0,0,
4223,"Kijima","Tokyo","Japan",36.85,138.38,"+09:00",,0,0,
4224,"Kiryu","Gumma","Japan",36.40,139.33,"+09:00",,0,0,
4225,"Kisarazu","Chiba","Japan",35.38,139.91,"+09:00",,0,0,
4226,"Kishiwada","Miyagi","Japan",34.46,135.36,"+09:00",,0,0,
4227,"Kitakami","Hiroshima","Japan",38.57,141.45,"+09:00",,0,0,
4228,"Kitakyushu","Fukuoka","Japan",33.83,130.83,"+09:00",,0,0,
4229,"Kitami","Hokkaido","Japan",43.80,143.90,"+09:00",,0,0,
4230,"Kobe","Hyogo","Japan",34.68,135.16,"+09:00",,0,0,
4231,"Kochi","Kochi","Japan",34.46,132.88,"+09:00",,0,0,
4232,"Kofu","Yamanashi","Japan",34.85,136.50,"+09:00",,0,0,
4234,"Komaki","Aichi","Japan",35.28,136.91,"+09:00",,0,0,
4236,"Kuji","Kagoshima","Japan",28.23,129.25,"+09:00",,0,0,
4237,"Kumamoto","Kumamoto","Japan",32.80,130.71,"+09:00",,0,0,
4238,"Kurashiki","Okayama","Japan",35.00,134.15,"+09:00",,0,0,
4239,"Kure","Akita","Japan",33.33,133.23,"+09:00",,0,0,
4241,"Kuroishi","Aomori","Japan",40.63,140.60,"+09:00",,0,0,
4242,"Kurume","Fukuoka","Japan",33.31,130.51,"+09:00",,0,0,
4243,"Kusatsu","Shiga","Japan",35.01,135.96,"+09:00",,0,0,
4244,"Kushikino","Kagoshima","Japan",31.71,130.26,"+09:00",,0,0,
4245,"Kushimoto","Wakayama","Japan",33.46,135.78,"+09:00",,0,0,
4246,"Kyoto","Kyoto","Japan",35.00,135.75,"+09:00",,0,0,
4247,"Makino","Shiga","Japan",34.35,135.28,"+09:00",,0,0,
4248,"Matsumoto","Nagano","Japan",26.35,127.81,"+09:00",,0,0,
4249,"Matsuto Shi","Chiba","Japan",36.51,136.56,"+09:00",,0,0,
4250,"Matsuyama","Ehime","Japan",31.56,131.05,"+09:00",,0,0,
4251,"Memuro","Hokkaido","Japan",42.91,143.05,"+09:00",,0,0,
4254,"Mikawa","Ishikawa","Japan",42.71,143.26,"+09:00",,0,0,
4255,"Miki","Hyogo","Japan",34.80,134.98,"+09:00",,0,0,
4256,"Mikkabi","Shizuoka","Japan",34.80,137.55,"+09:00",,0,0,
4258,"Minori","Okayama","Japan",34.86,133.70,"+09:00",,0,0,
4259,"Misawa","Aomori","Japan",42.75,141.71,"+09:00",,0,0,
4260,"Mishima","Kochi","Japan",33.75,133.55,"+09:00",,0,0,
4261,"Mito","Ibaraki","Japan",36.36,140.46,"+09:00",,0,0,
4262,"Miyazaki","Miyazaki","Japan",31.90,131.43,"+09:00",,0,0,
4263,"Miyazu","Kyoto","Japan",35.53,135.18,"+09:00",,0,0,
4264,"Mombetsu","Hokkaido","Japan",42.45,142.06,"+09:00",,0,0,
4266,"Moriyama","Ehime","Japan",33.48,132.63,"+09:00",,0,0,
4267,"Motoyama","Tokushima","Japan",42.98,141.05,"+09:00",,0,0,
4268,"Muko","Kyoto","Japan",34.93,135.70,"+09:00",,0,0,
4269,"Mure","Nagano","Japan",36.75,138.23,"+09:00",,0,0,
4271,"Nagano","Oita","Japan",32.90,131.93,"+09:00",,0,0,
4272,"Naganohara","Gumma","Japan",36.55,138.63,"+09:00",,0,0,
4273,"Nagaoka","Niigata","Japan",35.03,138.93,"+09:00",,0,0,
4275,"Nagasaki","Nagasaki","Japan",32.80,129.91,"+09:00",,0,0,
4276,"Nago","Okinawa","Japan",26.59,127.98,"+09:00",,0,0,
4277,"Nagoya","Aichi","Japan",35.16,136.91,"+09:00",,0,0,
4278,"Naha","Okinawa","Japan",26.21,127.67,"+09:00",,0,0,
4281,"Narashino","Chiba","Japan",35.68,140.03,"+09:00",,0,0,
4282,"Narita","Tokyo","Japan",35.78,140.31,"+09:00",,0,0,
4283,"Nemuro","Hokkaido","Japan",43.33,145.58,"+09:00",,0,0,
4286,"Niigata","Niigata","Japan",37.91,139.05,"+09:00",,0,0,
4288,"Nirasaki","Yamanashi","Japan",35.70,138.45,"+09:00",,0,0,
4289,"Nishinomiya","Hyogo","Japan",34.71,135.33,"+09:00",,0,0,
4290,"Nishiwaki","Hyogo","Japan",34.68,134.95,"+09:00",,0,0,
4291,"Nobeoka","Miyazaki","Japan",32.58,131.66,"+09:00",,0,0,
4292,"Noshiro","Akita","Japan",40.20,140.03,"+09:00",,0,0,
4293,"Numazu","Shizuoka","Japan",35.10,138.86,"+09:00",,0,0,
4294,"Nyuzen","Toyama","Japan",36.93,137.50,"+09:00",,0,0,
4295,"Obihiro","Hokkaido","Japan",42.91,143.20,"+09:00",,0,0,
4296,"Odawara","Kanagawa","Japan",35.25,139.16,"+09:00",,0,0,
4297,"Ohara","Shiga","Japan",35.11,135.83,"+09:00",,0,0,
4298,"Ohito","Shizuoka","Japan",34.98,138.93,"+09:00",,0,0,
4299,"Oiso","Kanagawa","Japan",35.30,139.31,"+09:00",,0,0,
4301,"Okaya","Nagano","Japan",36.05,138.05,"+09:00",,0,0,
4302,"Okayama","Okayama","Japan",34.65,133.91,"+09:00",,0,0,
4303,"Okazaki","Aichi","Japan",34.91,137.15,"+09:00",,0,0,
4305,"Omuta","Fukuoka","Japan",33.03,130.45,"+09:00",,0,0,
4306,"Ono","Oita","Japan",34.93,136.23,"+09:00",,0,0,
4307,"Osaka","Osaka","Japan",34.66,135.50,"+09:00",,0,0,
4311,"Ota","Tokyo","Japan",39.35,140.38,"+09:00",,0,0,
4312,"Otsu","Shiga","Japan",31.86,130.23,"+09:00",,0,0,
4314,"Ryuo","Yamanashi","Japan",35.65,138.50,"+09:00",,0,0,
4316,"Sakado","Saitama","Japan",35.95,139.40,"+09:00",,0,0,
4317,"Sakai","Hokkaido","Japan",45.30,141.05,"+09:00",,0,0,
4318,"Sanda","Hyogo","Japan",34.88,135.23,"+09:00",,0,0,
4319,"Sapporo","Hokkaido","Japan",43.05,141.35,"+09:00",,0,0,
4320,"Saroma","Hokkaido","Japan",44.01,143.76,"+09:00",,0,0,
4321,"Sasayama","Hyogo","Japan",35.06,135.21,"+09:00",,0,0,
4322,"Sasebo","Nagasaki","Japan",33.16,129.71,"+09:00",,0,0,
4323,"Sawara","Hyogo","Japan",34.38,136.40,"+09:00",,0,0,
4324,"Sayama","Tokyo","Japan",35.85,139.42,"+09:00",,0,0,
4325,"Sendai","Miyagi","Japan",38.25,140.88,"+09:00",,0,0,
4328,"Shimada","Shizuoka","Japan",33.96,131.93,"+09:00",,0,0,
4330,"Shimizu","Shizuoka","Japan",38.68,141.48,"+09:00",,0,0,
4331,"Shimoda","Shizuoka","Japan",26.16,127.65,"+09:00",,0,0,
4332,"Shimukappu","Hokkaido","Japan",43.00,142.41,"+09:00",,0,0,
4334,"Shingu","Fukuoka","Japan",33.71,130.43,"+09:00",,0,0,
4335,"Shiojiri","Nagano","Japan",36.10,137.96,"+09:00",,0,0,
4336,"Shizunai","Hokkaido","Japan",42.33,142.36,"+09:00",,0,0,
4337,"Shizuoka","Shizuoka","Japan",34.96,138.38,"+09:00",,0,0,
4338,"Shobu","Saitama","Japan",36.06,139.60,"+09:00",,0,0,
4339,"Soka","Saitama","Japan",35.81,139.80,"+09:00",,0,0,
4340,"Suwa","Nagano","Japan",31.45,130.73,"+09:00",,0,0,
4341,"Tachikawa","Tokyo","Japan",35.70,139.41,"+09:00",,0,0,
4342,"Tahara","Yamaguchi","Japan",34.95,134.76,"+09:00",,0,0,
4343,"Tajimi","Gifu","Japan",35.31,137.13,"+09:00",,0,0,
4344,"Takahagi","Ibaraki","Japan",35.90,139.38,"+09:00",,0,0,
4345,"Takaishi","Osaka","Japan",34.51,135.43,"+09:00",,0,0,
4346,"Takamatsu","Kagawa","Japan",31.45,131.17,"+09:00",,0,0,
4347,"Takaoka","Toyama","Japan",31.95,131.30,"+09:00",,0,0,
4348,"Takarazuka","Hyogo","Japan",34.80,135.35,"+09:00",,0,0,
4349,"Takasaki","Gumma","Japan",37.90,138.28,"+09:00",,0,0,
4350,"Takayama","Ehime","Japan",33.30,132.43,"+09:00",,0,0,
4352,"Takino","Hyogo","Japan",42.91,141.36,"+09:00",,0,0,
4354,"Tamana","Chiba","Japan",32.91,130.56,"+09:00",,0,0,
4356,"Tateyama","Chiba","Japan",33.01,130.75,"+09:00",,0,0,
4357,"Tatsuno","Hyogo","Japan",35.98,138.00,"+09:00",,0,0,
4358,"Teshio","Hokkaido","Japan",44.88,141.73,"+09:00",,0,0,
4359,"Toba","Tottori","Japan",34.48,136.85,"+09:00",,0,0,
4360,"Tobaru","Okinawa","Japan",26.32,127.78,"+09:00",,0,0,
4362,"Tokorozawa","Saitama","Japan",35.78,139.46,"+09:00",,0,0,
4363,"Tokushima","Tokushima","Japan",34.06,134.56,"+09:00",,0,0,
4364,"Tokyo","Tokyo","Japan",35.70,139.76,"+09:00",,0,0,
4365,"Tondabayashi","Osaka","Japan",34.50,135.60,"+09:00",,0,0,
4367,"Toyama","Toyama","Japan",36.98,140.96,"+09:00",,0,0,
4368,"Toyokawa","Aichi","Japan",44.06,144.03,"+09:00",,0,0,
4370,"Toyonaka","Osaka","Japan",34.78,135.46,"+09:00",,0,0,
4371,"Toyota","Saitama","Japan",38.76,139.81,"+09:00",,0,0,
4373,"Tsuru","Nara","Japan",32.63,130.98,"+09:00",,0,0,
4374,"Tsuruoka","Yamagata","Japan",38.72,139.82,"+09:00",,0,0,
4375,"Tsuruta","Kagoshima","Japan",31.95,130.48,"+09:00",,0,0,
4376,"Tsushima","Tokushima","Japan",35.16,136.71,"+09:00",,0,0,
4377,"Tsuyama","Okayama","Japan",35.05,134.00,"+09:00",,0,0,
4378,"Urawa","Saitama","Japan",35.85,139.65,"+09:00",,0,0,
4379,"Urayasu","Chiba","Japan",35.65,139.90,"+09:00",,0,0,
4380,"Utsunomiya","Tochigi","Japan",36.55,139.86,"+09:00",,0,0,
4381,"Wakayama","Fukui","Japan",34.21,133.18,"+09:00",,0,0,
4382,"Warabi","Saitama","Japan",32.81,128.88,"+09:00",,0,0,
4384,"Yamanouchi","Yamanashi","Japan",35.33,139.55,"+09:00",,0,0,
4385,"Yamauchi","Niigata","Japan",37.86,139.40,"+09:00",,0,0,
4386,"Yao","Yamaguchi","Japan",34.61,135.60,"+09:00",,0,0,
4387,"Yashiro","Hyogo","Japan",34.91,134.96,"+09:00",,0,0,
4388,"Yatabe","Ibaraki","Japan",35.78,140.75,"+09:00",,0,0,
4389,"Yokaichi","Okayama","Japan",34.68,133.50,"+09:00",,0,0,
4390,"Yokkaichi","Oita","Japan",33.53,131.33,"+09:00",,0,0,
4391,"Yokohama","Kanagawa","Japan",35.45,139.65,"+09:00",,0,0,
4392,"Yokosuka","Kanagawa","Japan",35.30,139.66,"+09:00",,0,0,
4393,"Yonezawa","Yamagata","Japan",37.91,140.11,"+09:00",,0,0,
4394,"Yotsukaido","Chiba","Japan",35.65,140.16,"+09:00",,0,0,
4397,"Eldoret","Rift Valley","Kenya",0.51,35.28,"+03:00",,0,0,
4399,"Kakamega","Western","Kenya",0.28,34.75,"+03:00",,0,0,
4400,"Kisumu","Nyanza","Kenya",-0.10,34.75,"+03:00",,0,0,
4401,"Meru","Eastern","Kenya",0.05,37.65,"+03:00",,0,0,
4402,"Mombasa","Coast","Kenya",-4.05,39.66,"+03:00",,0,0,
4403,"Nairobi","Nairobi Area","Kenya",-1.28,36.81,"+03:00",,0,0,
4404,"Nakuru","Eastern","Kenya",-0.28,36.06,"+03:00",,0,0,
4405,"Nyeri","Central","Kenya",-0.41,36.95,"+03:00",,0,0,
4406,"Bishkek","Bishkek","Kyrgyzstan",42.90,74.60,"+05:00",,0,0,
4407,"Karakol","Ysyk-Kol","Kyrgyzstan",42.48,78.40,"+05:00",,0,0,
4408,"Almaty","Almaty","Kazakhstan",43.32,76.92,"+06:00",,0,0,
4409,"Kokshetau","Soltustik Qazaqstan","Kazakhstan",53.30,69.42,"+06:00",,0,0,
4410,"Zhambyl","Zhambyl","Kazakhstan",42.90,71.37,"+06:00",,0,0,
4411,"Nuwara Eliya","Central","Sri Lanka",6.97,80.77,"+05:50",,0,0,
4412,"Clay-Ashland","Montserrado","Liberia",6.42,-10.72,"+00:00",,0,0,
4413,"Gbarnga","Bong","Liberia",6.99,-9.47,"+00:00",,0,0,
4414,"Monrovia","Montserrado","Liberia",6.31,-10.80,"+00:00",,0,0,
4415,"Maseru","Maseru","Lesotho",-29.31,27.48,"+02:00",,0,0,
4416,"Kaunas","Kauno Apskritis","Lithuania",54.90,23.90,"+02:00",,0,0,
4417,"Klaipeda","Klaipedos Apskritis","Lithuania",55.71,21.11,"+02:00",,0,0,
4418,"Diekirch","Diekirch","Luxembourg",49.86,6.15,"+01:00",,0,0,
4419,"Esch-Sur-Alzette","Luxembourg","Luxembourg",49.49,5.98,"+01:00",,0,0,
4420,"Ettelbruck","Diekirch","Luxembourg",49.84,6.10,"+01:00",,0,0,
4421,"Liepaja","Liepaja","Latvia",56.51,21.01,"+02:00",,0,0,
4422,"RIGA","Riga","Latvia",56.95,24.10,"+02:00",,0,0,
4423,"Agadir","Laayoune","Morocco",30.58,-9.16,"+00:00",,0,0,
4424,"Casablanca","Casablanca","Morocco",33.59,-7.61,"+00:00",,0,0,
4425,"Chisinau","Chisinau","Moldova",47.00,28.85,"+02:00",,0,0,
4426,"Bamako","Bamako","Mali",12.65,-8.00,"+00:00",,0,0,
4427,"Gao","Mopti","Mali",14.15,-10.50,"+00:00",,0,0,
4428,"Tombouctou","Bamako","Mali",16.76,-3.01,"+00:00",,0,0,
4429,"Blantyre","Blantyre","Malawi",-15.78,35.00,"+02:00",,0,0,
4430,"Lilongwe","Lilongwe","Malawi",-13.98,33.78,"+02:00",,0,0,
4431,"Acambaro","Guanajuato","Mexico",20.03,-100.73,"-06:00",,0,0,
4432,"Agua Prieta","Sonora","Mexico",31.33,-109.56,"-07:00",,0,0,
4433,"Aguascalientes","Aguascalientes","Mexico",21.88,-102.30,"-06:00",,0,0,
4434,"Ajijic","Jalisco","Mexico",20.30,-103.28,"-06:00",,0,0,
4435,"Alamos","San Luis Potosi","Mexico",22.61,-99.51,"-06:00",,0,0,
4436,"Arizpe","Coahuila de Zaragoza","Mexico",25.55,-100.96,"-06:00",,0,0,
4437,"Atotonilco","Mexico","Mexico",19.91,-99.21,"-06:00",,0,0,
4438,"Autlan De Navarro","Jalisco","Mexico",19.76,-104.36,"-06:00",,0,0,
4439,"Cabo San Lucas","Baja California Sur","Mexico",22.88,-109.90,"-07:00",,0,0,
4440,"Caborca","Sonora","Mexico",30.71,-112.15,"-07:00",,0,0,
4441,"Cananea","Sonora","Mexico",30.95,-110.30,"-06:00",,0,0,
4442,"Cancun","Quintana Roo","Mexico",21.16,-86.83,"-06:00",,0,0,
4444,"Celaya","Guanajuato","Mexico",16.91,-93.11,"-06:00",,0,0,
4445,"Chapala","Michoacan de Ocampo","Mexico",18.61,-102.68,"-06:00",,0,0,
4446,"Chignahuapan","Puebla","Mexico",19.83,-98.03,"-06:00",,0,0,
4447,"Chilpancingo","Guerrero","Mexico",17.55,-99.50,"-06:00",,0,0,
4448,"Ciudad Juarez","Chihuahua","Mexico",31.73,-106.48,"-07:00",,0,0,
4449,"Ciudad Lerdo","Durango","Mexico",25.53,-103.53,"-06:00",,0,0,
4450,"Ciudad Obregon","Yucatan","Mexico",20.20,-89.28,"-06:00",,0,0,
4451,"Cordoba","Veracruz-Llave","Mexico",18.88,-96.93,"-06:00",,0,0,
4452,"Cosala","Sinaloa","Mexico",24.41,-106.69,"-06:00",,0,0,
4453,"Coyoacan","Quintana Roo","Mexico",19.33,-99.16,"-06:00",,0,0,
4455,"Cumpas","Sonora","Mexico",29.98,-109.78,"-06:00",,0,0,
4456,"Delicias","Chiapas","Mexico",14.76,-92.18,"-06:00",,0,0,
4457,"Dzidzantun","Yucatan","Mexico",21.25,-89.05,"-06:00",,0,0,
4458,"El Rosario","Oaxaca","Mexico",17.35,-97.60,"-06:00",,0,0,
4459,"Empalme","Sonora","Mexico",27.96,-110.81,"-06:00",,0,0,
4460,"Ensenada","Baja California","Mexico",31.86,-116.61,"-08:00",,0,0,
4461,"Gomez Palacio","Nuevo Leon","Mexico",25.45,-99.33,"-06:00",,0,0,
4462,"Guamuchil","Guerrero","Mexico",17.16,-100.11,"-06:00",,0,0,
4463,"Guanajuato","Guanajuato","Mexico",15.10,-92.25,"-06:00",,0,0,
4464,"Guaymas","Sonora","Mexico",27.93,-110.90,"-07:00",,0,0,
4465,"Hidalgo","Tamaulipas","Mexico",24.24,-99.43,"-06:00",,0,0,
4466,"Huatabampo","Campeche","Mexico",26.83,-109.63,"-06:00",,0,0,
4467,"Irapuato","Guanajuato","Mexico",20.68,-101.35,"-06:00",,0,0,
4468,"Jacona","Michoacan de Ocampo","Mexico",19.95,-102.26,"-06:00",,0,0,
4469,"La Barca","Jalisco","Mexico",20.28,-102.56,"-06:00",,0,0,
4470,"Lagos De Moreno","Jalisco","Mexico",21.35,-101.91,"-06:00",,0,0,
4471,"Lazaro Cardenas","Nayarit","Mexico",22.21,-105.25,"-06:00",,0,0,
4472,"Loreto","Jalisco","Mexico",21.18,-102.63,"-06:00",,0,0,
4473,"Los Mochis","Sinaloa","Mexico",25.76,-108.96,"-07:00",,0,0,
4475,"Maneadero","Baja California","Mexico",31.71,-116.56,"-06:00",,0,0,
4476,"Manzanillo","Colima","Mexico",19.05,-104.33,"-06:00",,0,0,
4477,"Mazatlan","Sinaloa","Mexico",23.21,-106.41,"-07:00",,0,0,
4479,"Mulege","Baja California","Mexico",26.88,-111.98,"-06:00",,0,0,
4481,"Nacozari De Garcia","Sonora","Mexico",30.40,-109.65,"-07:00",,0,0,
4482,"Naucalpan","Mexico","Mexico",19.46,-99.23,"-06:00",,0,0,
4483,"Navojoa","Sonora","Mexico",27.10,-109.43,"-07:00",,0,0,
4484,"Ocotlan","Jalisco","Mexico",20.35,-102.76,"-06:00",,0,0,
4485,"Orizaba","Veracruz-Llave","Mexico",18.85,-97.10,"-06:00",,0,0,
4486,"Parral","Chihuahua","Mexico",26.93,-105.66,"-07:00",,0,0,
4487,"Piedras Negras","Tlaxcala","Mexico",19.48,-98.05,"-06:00",,0,0,
4488,"Poncitlan","Jalisco","Mexico",20.05,-103.43,"-06:00",,0,0,
4489,"Puebla","Puebla","Mexico",19.05,-98.20,"-06:00",,0,0,
4490,"Puerto Penasco","Sonora","Mexico",29.98,-111.18,"-06:00",,0,0,
4491,"Puerto Vallarta","Jalisco","Mexico",20.61,-105.25,"-06:00",,0,0,
4492,"Rosario","Durango","Mexico",26.51,-105.66,"-06:00",,0,0,
4493,"Sahuaripa","Sonora","Mexico",29.05,-109.23,"-06:00",,0,0,
4494,"Salamanca","Guanajuato","Mexico",23.46,-99.30,"-06:00",,0,0,
4495,"Salvatierra","Chiapas","Mexico",16.48,-92.33,"-06:00",,0,0,
4496,"San Cristobal De Las Casas","Chiapas","Mexico",16.75,-92.63,"-06:00",,0,0,
4497,"San Felipe","Oaxaca","Mexico",16.85,-97.23,"-06:00",,0,0,
4498,"San Jose Del Cabo","Baja California Sur","Mexico",23.05,-109.68,"-07:00",,0,0,
4499,"San Juan Del Rio","Oaxaca","Mexico",17.49,-95.75,"-06:00",,0,0,
4500,"San Luis Rio Colorado","Sonora","Mexico",32.48,-114.80,"-07:00",,0,0,
4501,"San Miguel De Allende","Guanajuato","Mexico",20.91,-100.75,"-06:00",,0,0,
4503,"Santa Rosalia","Chihuahua","Mexico",28.03,-106.46,"-06:00",,0,0,
4504,"Sayula","Veracruz-Llave","Mexico",17.86,-94.95,"-06:00",,0,0,
4505,"Taxco","Guerrero","Mexico",18.50,-99.56,"-06:00",,0,0,
4506,"Tecate","Baja California","Mexico",32.56,-116.63,"-06:00",,0,0,
4507,"Tehuantepec","Michoacan de Ocampo","Mexico",18.68,-103.28,"-06:00",,0,0,
4508,"Tepatitlan","Jalisco","Mexico",20.81,-102.73,"-06:00",,0,0,
4509,"Tijuana","Mexico","Mexico",32.53,-117.01,"-06:00",,0,0,
4510,"Tixtla De Guerrero","Guerrero","Mexico",17.58,-99.43,"-06:00",,0,0,
4512,"Tlaquepaque","Jalisco","Mexico",20.65,-103.31,"-06:00",,0,0,
4513,"Todos Santos","Baja California Sur","Mexico",23.45,-110.21,"-06:00",,0,0,
4514,"Toluca","Mexico","Mexico",15.63,-92.73,"-06:00",,0,0,
4515,"Torreon","Coahuila de Zaragoza","Mexico",30.50,-110.68,"-06:00",,0,0,
4516,"Tula","Hidalgo","Mexico",20.05,-99.35,"-06:00",,0,0,
4517,"Tulancingo","Hidalgo","Mexico",20.08,-98.36,"-06:00",,0,0,
4518,"Ures","Sonora","Mexico",29.43,-110.40,"-06:00",,0,0,
4519,"Uruapan","Michoacan de Ocampo","Mexico",19.41,-102.06,"-06:00",,0,0,
4520,"Valle De Bravo","Mexico","Mexico",19.18,-100.13,"-06:00",,0,0,
4522,"Valles","Coahuila de Zaragoza","Mexico",26.66,-100.68,"-06:00",,0,0,
4523,"Veracruz","Veracruz-Llave","Mexico",19.20,-96.13,"-06:00",,0,0,
4524,"Xalapa","Veracruz-Llave","Mexico",19.53,-96.91,"-06:00",,0,0,
4526,"Zapopan","Jalisco","Mexico",20.71,-103.40,"-06:00",,0,0,
4528,"Otjiwarongo","Otjozondjupa","Namibia",-18.08,13.08,"+01:00",,0,0,
4529,"Benin City","Edo","Nigeria",6.33,5.63,"+01:00",,0,0,
4530,"Ibadan","Oyo","Nigeria",6.53,2.76,"+01:00",,0,0,
4531,"Ile-Ife","Osun","Nigeria",7.46,4.56,"+01:00",,0,0,
4532,"Kaduna","Kaduna","Nigeria",10.52,7.44,"+01:00",,0,0,
4533,"Lagos","Lagos","Nigeria",6.45,3.39,"+01:00",,0,0,
4534,"Owerri","Nigeria","Nigeria",5.48,7.03,"+01:00",,0,0,
4535,"Port Harcourt","Rivers","Nigeria",4.77,7.01,"+01:00",,0,0,
4536,"Bluefields","Atlantico Sur","Nicaragua",12.00,-83.75,"-06:00",,0,0,
4537,"Corinto","Managua","Nicaragua",12.03,-86.35,"-06:00",,0,0,
4538,"Diriamba","Carazo","Nicaragua",11.85,-86.23,"-06:00",,0,0,
4539,"Esteli","Esteli","Nicaragua",13.08,-86.35,"-06:00",,0,0,
4540,"Granada","Granada","Nicaragua",11.93,-85.95,"-06:00",,0,0,
4541,"Jalapa","Nueva Segovia","Nicaragua",13.91,-86.13,"-06:00",,0,0,
4542,"Jinotega","Jinotega","Nicaragua",13.10,-86.00,"-06:00",,0,0,
4543,"Jinotepe","Carazo","Nicaragua",11.85,-86.20,"-06:00",,0,0,
4544,"Juigalpa","Chontales","Nicaragua",12.08,-85.40,"-06:00",,0,0,
4545,"Laguna De Perlas","Atlantico Norte","Nicaragua",12.35,-83.66,"-06:00",,0,0,
4546,"Leon","Leon","Nicaragua",12.43,-86.88,"-06:00",,0,0,
4547,"Managua","Managua","Nicaragua",12.15,-86.28,"-06:00",,0,0,
4549,"Masaya","Masaya","Nicaragua",11.96,-86.10,"-06:00",,0,0,
4550,"Ocotal","Nueva Segovia","Nicaragua",13.63,-86.48,"-06:00",,0,0,
4551,"Posoltega","Chinandega","Nicaragua",12.55,-86.98,"-06:00",,0,0,
4552,"Puerto Cabezas","Atlantico Norte","Nicaragua",14.03,-83.38,"-06:00",,0,0,
4553,"Rama","Atlantico Sur","Nicaragua",12.15,-84.21,"-06:00",,0,0,
4554,"Rivas","Rivas","Nicaragua",11.43,-85.83,"-06:00",,0,0,
4555,"San Isidro","Rivas","Nicaragua",11.61,-86.00,"-06:00",,0,0,
4556,"San Jorge","Rivas","Nicaragua",11.45,-85.80,"-06:00",,0,0,
4557,"San Marcos","Rivas","Nicaragua",11.58,-85.65,"-06:00",,0,0,
4558,"San Rafael","Managua","Nicaragua",12.68,-87.25,"-06:00",,0,0,
4559,"Santo Domingo","Madriz","Nicaragua",13.53,-86.51,"-06:00",,0,0,
4560,"Somoto","Madriz","Nicaragua",13.48,-86.58,"-06:00",,0,0,
4563,"Waspan","Atlantico Norte","Nicaragua",14.73,-83.96,"-06:00",,0,0,
4564,"Delft","Zuid-Holland","Netherlands",52.00,4.36,"+01:00",,0,0,
4565,"Dieren","Gelderland","Netherlands",52.05,6.13,"+01:00",,0,0,
4566,"Enschede","Overijssel","Netherlands",52.21,6.90,"+01:00",,0,0,
4568,"Kapelle","Zeeland","Netherlands",51.65,3.96,"+01:00",,0,0,
4570,"Meppel","Drenthe","Netherlands",52.70,6.20,"+01:00",,0,0,
4571,"Nijmegen","Gelderland","Netherlands",51.83,5.86,"+01:00",,0,0,
4573,"Rhenen","Utrecht","Netherlands",51.96,5.56,"+01:00",,0,0,
4574,"Rotterdam","Zuid-Holland","Netherlands",51.91,4.50,"+01:00",,0,0,
4575,"Soest","Utrecht","Netherlands",52.18,5.30,"+01:00",,0,0,
4577,"Bergen","Hordaland","Norway",60.39,5.32,"+01:00",,0,0,
4578,"Fagernes","Akershus","Norway",60.51,11.16,"+01:00",,0,0,
4579,"Flekkefjord","Vest-Agder","Norway",58.28,6.68,"+01:00",,0,0,
4580,"Gjovik","Oppland","Norway",60.80,10.70,"+01:00",,0,0,
4581,"Hamar","Hedmark","Norway",60.80,11.10,"+01:00",,0,0,
4582,"Hammerfest","Finnmark","Norway",70.66,23.68,"+01:00",,0,0,
4583,"Kongsberg","Buskerud","Norway",59.65,9.65,"+01:00",,0,0,
4585,"Mo","Nordland","Norway",66.31,14.16,"+01:00",,0,0,
4586,"Moss","ÿstfold","Norway",59.43,10.66,"+01:00",,0,0,
4587,"Stavanger","Rogaland","Norway",58.96,5.75,"+01:00",,0,0,
4588,"Sunndal","Sogn og Fjordane","Norway",61.93,5.65,"+01:00",,0,0,
4590,"Trondheim","Sor-Trondelag","Norway",63.41,10.41,"+01:00",,0,0,
4591,"Voss","Hordaland","Norway",60.63,6.40,"+01:00",,0,0,
4592,"Kathmandu","Bagmati","Nepal",27.71,85.31,"+05:45",,0,0,
4593,"Ashburton","Canterbury","New Zealand",-43.91,171.75,"+12:00",,0,0,
4594,"Auckland","Auckland","New Zealand",-36.86,174.76,"+12:00",,0,0,
4596,"Christchurch","Canterbury","New Zealand",-43.53,172.63,"+12:00",,0,0,
4597,"Dunedin","Otago","New Zealand",-45.86,170.50,"+12:00",,0,0,
4599,"Gisborne","Chatham Islands","New Zealand",-38.65,178.00,"+12:00",,0,0,
4600,"Hamilton","Waikato","New Zealand",-37.78,175.28,"+12:00",,0,0,
4601,"Kaikohe","Northland","New Zealand",-35.40,173.79,"+12:00",,0,0,
4602,"Lower Hutt","Wellington","New Zealand",-41.21,174.91,"+12:00",,0,0,
4604,"Palmerston North","Wanganui-Manawatu","New Zealand",-40.35,175.61,"+12:00",,0,0,
4605,"Queenstown","Otago","New Zealand",-45.03,168.66,"+12:00",,0,0,
4606,"Rotorua","Bay of Plenty","New Zealand",-38.13,176.22,"+12:00",,0,0,
4607,"Tauranga","Bay of Plenty","New Zealand",-37.68,176.16,"+12:00",,0,0,
4608,"Te Puke","Bay of Plenty","New Zealand",-37.78,176.26,"+12:00",,0,0,
4609,"Timaru","Canterbury","New Zealand",-44.40,171.25,"+12:00",,0,0,
4610,"Tokoroa","Waikato","New Zealand",-38.23,175.86,"+12:00",,0,0,
4611,"Upper Hutt","Wellington","New Zealand",-41.13,175.04,"+12:00",,0,0,
4612,"Waitara","Taranaki","New Zealand",-38.92,174.25,"+12:00",,0,0,
4614,"Wanganui","Wanganui-Manawatu","New Zealand",-39.93,175.05,"+12:00",,0,0,
4615,"Whangarei","Northland","New Zealand",-35.72,174.30,"+12:00",,0,0,
4616,"Anton","Cocle","Panama",8.40,-80.26,"-05:00",,0,0,
4617,"Colon","Colon","Panama",9.35,-79.90,"-05:00",,0,0,
4618,"David","Chiriqui","Panama",8.43,-82.43,"-05:00",,0,0,
4619,"Panama City","Panama","Panama",8.96,-79.53,"-05:00",,0,0,
4620,"Arequipa","Arequipa","Peru",-16.39,-71.53,"-05:00",,0,0,
4621,"Callao","Callao","Peru",-5.35,-73.76,"-05:00",,0,0,
4622,"Caras","Ancash","Peru",-9.06,-77.81,"-05:00",,0,0,
4623,"Chimbote","Ancash","Peru",-3.93,-70.78,"-05:00",,0,0,
4624,"Cuzco","Cusco","Peru",-6.98,-76.46,"-05:00",,0,0,
4625,"Lima","Lima","Peru",-12.05,-77.05,"-05:00",,0,0,
4626,"Miraflores","Lima","Peru",-7.03,-76.45,"-05:00",,0,0,
4627,"Pucallpa","Lima","Peru",-10.53,-76.77,"-05:00",,0,0,
4628,"Trujillo","La Libertad","Peru",-8.11,-79.03,"-05:00",,0,0,
4629,"Lae","Morobe","Papua New Guinea",-6.73,147.00,"+10:00",,0,0,
4630,"Bacarra","Ilocos Norte","Philippines",18.25,120.61,"+08:00",,0,0,
4631,"Bacolod","Negros Occidental","Philippines",17.16,121.85,"+08:00",,0,0,
4632,"Baguio","Baguio","Philippines",16.41,120.60,"+08:00",,0,0,
4633,"Cagayan","Tawi-Tawi","Philippines",6.98,118.50,"+08:00",,0,0,
4634,"Camiling","Tarlac","Philippines",15.53,120.53,"+08:00",,0,0,
4635,"Cavite City","Cavite","Philippines",14.48,120.91,"+08:00",,0,0,
4636,"Cebu","Cebu City","Philippines",10.30,123.90,"+08:00",,0,0,
4637,"Davao","Davao City","Philippines",7.06,125.60,"+08:00",,0,0,
4638,"Iloilo","Iloilo City","Philippines",10.70,122.56,"+08:00",,0,0,
4640,"Kalibo","South Cotabato","Philippines",6.35,124.81,"+08:00",,0,0,
4641,"Laoag","Zambales","Philippines",14.96,120.16,"+08:00",,0,0,
4642,"Legaspi","Albay","Philippines",16.03,120.81,"+08:00",,0,0,
4643,"Lipa City","Lipa","Philippines",13.95,121.16,"+08:00",,0,0,
4644,"Makati","Manila","Philippines",16.41,121.11,"+08:00",,0,0,
4645,"Manila","Manila","Philippines",14.58,121.00,"+08:00",,0,0,
4646,"Marikina","Manila","Philippines",14.63,121.10,"+08:00",,0,0,
4647,"Olongapo","Olongapo","Philippines",14.83,120.26,"+08:00",,0,0,
4648,"Palo","Leyte","Philippines",11.15,124.99,"+08:00",,0,0,
4649,"Puerto Princesa","Palawan","Philippines",9.73,118.73,"+08:00",,0,0,
4650,"Quezon City","Manila","Philippines",14.63,121.03,"+08:00",,0,0,
4651,"Roxas","Capiz","Philippines",11.58,122.75,"+08:00",,0,0,
4652,"San Pablo","Zamboanga del Sur","Philippines",7.66,123.45,"+08:00",,0,0,
4654,"Lahore","Punjab","Pakistan",31.57,74.31,"+05:00",,0,0,
4655,"Peshawar","North-West Frontier","Pakistan",34.01,71.55,"+05:00",,0,0,
4657,"Bielsko-Biala","Slaskie","Poland",49.81,19.03,"+01:00",,0,0,
4659,"Czestochowa","Slaskie","Poland",50.80,19.11,"+01:00",,0,0,
4660,"Gdansk","Pomorskie","Poland",54.35,18.66,"+01:00",,0,0,
4661,"Gdynia","Pomorskie","Poland",54.50,18.55,"+01:00",,0,0,
4662,"Kilikollur","Kerala","India",8.92,76.63,"5.5",Rs. 0.00,0,1,Rs. 18.00
4663,"Gulcz","Wielkopolskie","Poland",52.88,16.38,"+01:00",,0,0,
4664,"Jelenia Gora","Dolnoslaskie","Poland",50.90,15.73,"+01:00",,0,0,
4665,"Katowice","Slaskie","Poland",50.26,19.01,"+01:00",,0,0,
4667,"Lomianki","Mazowieckie","Poland",52.35,20.90,"+01:00",,0,0,
4668,"Lomza","Podlaskie","Poland",53.18,22.08,"+01:00",,0,0,
4669,"Milanowek","Mazowieckie","Poland",52.13,20.68,"+01:00",,0,0,
4670,"Olsztyn","Slaskie","Poland",50.75,19.26,"+01:00",,0,0,
4671,"Plock","Mazowieckie","Poland",52.55,19.70,"+01:00",,0,0,
4672,"Poznan","Wielkopolskie","Poland",52.41,16.96,"+01:00",,0,0,
4673,"Pultusk","Mazowieckie","Poland",52.71,21.10,"+01:00",,0,0,
4674,"Rzeszow","Podkarpackie","Poland",50.05,22.00,"+01:00",,0,0,
4675,"Slomniki","Malopolskie","Poland",50.25,20.10,"+01:00",,0,0,
4676,"Szczecin","Zachodniopomorskie","Poland",53.41,14.58,"+01:00",,0,0,
4677,"Torun","Lubelskie","Poland",51.10,23.08,"+01:00",,0,0,
4680,"Wroclaw","Dolnoslaskie","Poland",51.10,17.03,"+01:00",,0,0,
4681,"Zawiercie","Slaskie","Poland",50.50,19.43,"+01:00",,0,0,
4682,"Zielona Gora","Lodzkie","Poland",51.70,19.70,"+01:00",,0,0,
4683,"Angra Do Heroismo","Azores","Portugal",38.65,-27.21,"+00:00",,0,0,
4684,"Coimbra","Coimbra","Portugal",40.20,-8.41,"+00:00",,0,0,
4685,"Faro","Faro","Portugal",37.01,-7.93,"+00:00",,0,0,
4686,"Funchal","Madeira","Portugal",32.63,-16.90,"+00:00",,0,0,
4688,"Horta","Azores","Portugal",38.53,-28.63,"+00:00",,0,0,
4689,"Lagoa","Faro","Portugal",37.16,-7.50,"+00:00",,0,0,
4690,"Machico","Madeira","Portugal",32.70,-16.76,"+00:00",,0,0,
4691,"Mangualde","Viseu","Portugal",40.60,-7.76,"+00:00",,0,0,
4692,"Ponta Delgada","Azores","Portugal",37.73,-25.66,"+00:00",,0,0,
4694,"Ribeira Grande","Azores","Portugal",37.81,-25.51,"+00:00",,0,0,
4696,"Vila Do Porto","Coimbra","Portugal",36.93,-25.15,"+00:00",,0,0,
4697,"Villa Franca Do Campo","Azores","Portugal",37.71,-25.43,"+00:00",,0,0,
4698,"Asuncion","Asuncion","Paraguay",-25.26,-57.66,"-04:00",,0,0,
4699,"Santa Maria","Asuncion","Paraguay",-20.41,-58.11,"-04:00",,0,0,
4700,"Brasov","Brasov","Romania",45.63,25.58,"+02:00",,0,0,
4701,"Bucharest","Bucuresti","Romania",44.43,26.10,"+02:00",,0,0,
4702,"Cluj-Napoca","Cluj","Romania",46.76,23.60,"+02:00",,0,0,
4703,"Sibiu","Sibiu","Romania",45.80,24.15,"+02:00",,0,0,
4704,"Archangelsk","Arkhangel'skaya Oblast'","Russia",64.56,40.53,"+03:00",,0,0,
4705,"Azov","Rostovskaya Oblast'","Russia",47.11,39.41,"+03:00",,0,0,
4707,"Barnaul","Altayskiy Kray","Russia",53.36,83.75,"+03:00",,0,0,
4708,"Borovichi","Kurganskaya Oblast'","Russia",54.96,62.70,"+03:00",,0,0,
4709,"Budennovsk","Tverskaya Oblast'","Russia",44.77,44.16,"+03:00",,0,0,
4711,"Cherepovets","Volgogradskaya Oblast'","Russia",59.13,37.90,"+03:00",,0,0,
4712,"Derbent","Dagestan","Russia",42.06,48.29,"+03:00",,0,0,
4713,"Dikson","Taymyrskiy Dolgano-Nenetskiy Avtonomnyy Okrug","Russia",73.50,80.57,"+03:00",,0,0,
4714,"Dmitrov","Moskovskaya Oblast'","Russia",53.48,35.87,"+03:00",,0,0,
4715,"Dubna","Moskovskaya Oblast'","Russia",55.86,38.96,"+03:00",,0,0,
4716,"Ekaterinburg","Sverdlovskaya Oblast'","Russia",56.85,60.60,"+03:00",,0,0,
4717,"Georgievsk","Stavropol'skiy Kray","Russia",44.15,43.47,"+03:00",,0,0,
4718,"Ishim","Permskaya Oblast'","Russia",56.50,86.21,"+03:00",,0,0,
4719,"Kislovodsk","Stavropol'skiy Kray","Russia",43.91,42.72,"+03:00",,0,0,
4720,"Konakovo","Moskovskaya Oblast'","Russia",55.42,37.16,"+03:00",,0,0,
4721,"Kotlas","Arkhangel'skaya Oblast'","Russia",61.26,46.65,"+03:00",,0,0,
4722,"Krasnodar","Krasnodarskiy Kray","Russia",45.03,38.97,"+03:00",,0,0,
4723,"Krasnogorsk","Krasnodarskiy Kray","Russia",55.05,37.82,"+03:00",,0,0,
4724,"Krestsy","Novgorodskaya Oblast'","Russia",58.25,32.51,"+03:00",,0,0,
4726,"Vladivostok","Primorskiy Kray","Russia",43.13,131.90,"+03:00",,0,0,
4727,"Lermontov","Stavropol'skiy Kray","Russia",44.10,42.95,"+03:00",,0,0,
4728,"Lomonosov","Moskva","Russia",59.91,29.74,"+03:00",,0,0,
4730,"Nakhodka","Primorskiy Kray","Russia",42.83,132.89,"+03:00",,0,0,
4733,"Novopavlovsk","Stavropol'skiy Kray","Russia",43.96,43.63,"+03:00",,0,0,
4734,"Novorossiisk","Krasnoyarskiy Kray","Russia",44.72,37.77,"+03:00",,0,0,
4735,"Obninsk","Kaluzhskaya Oblast'","Russia",55.09,36.61,"+03:00",,0,0,
4736,"Okha","Arkhangel'skaya Oblast'","Russia",56.49,33.88,"+03:00",,0,0,
4737,"Palatka","Magadanskaya Oblast'","Russia",60.10,150.90,"+03:00",,0,0,
4738,"Pereslavl'-Zalesskiy","Yaroslavskaya Oblast'","Russia",56.73,38.85,"+03:00",,0,0,
4740,"Provideniya","Kamchatskaya Oblast'","Russia",64.38,-173.30,"+03:00",,0,0,
4741,"Pryazha","Kareliya","Russia",61.70,33.61,"+03:00",,0,0,
4742,"Pushkin","Rostovskaya Oblast'","Russia",46.83,41.11,"+03:00",,0,0,
4743,"Pushkino","Kaliningradskaya Oblast'","Russia",54.42,21.54,"+03:00",,0,0,
4744,"Pyatigorsk","Stavropol'skiy Kray","Russia",44.04,43.05,"+03:00",,0,0,
4745,"Rostov-On-Don","Rostovskaya Oblast'","Russia",47.23,39.71,"+03:00",,0,0,
4747,"Rubtsovsk","Altayskiy Kray","Russia",51.50,81.25,"+03:00",,0,0,
4748,"Rybinsk","Yaroslavskaya Oblast'","Russia",58.05,38.83,"+03:00",,0,0,
4749,"Sarov","Mordoviya","Russia",54.93,43.32,"+03:00",,0,0,
4750,"Serpukhov","Moskovskaya Oblast'","Russia",54.92,37.41,"+03:00",,0,0,
4752,"Sochi","Krasnodarskiy Kray","Russia",43.60,39.73,"+03:00",,0,0,
4753,"Sovetskaya Gavan'","Khabarovskiy Kray","Russia",49.05,140.28,"+03:00",,0,0,
4755,"Staraya Russa","Novgorodskaya Oblast'","Russia",57.99,31.36,"+03:00",,0,0,
4756,"Syktyvkar","Komi","Russia",61.66,50.81,"+03:00",,0,0,
4757,"Taldom","Novgorodskaya Oblast'","Russia",56.73,37.53,"+03:00",,0,0,
4759,"Togliatti","Samarskaya Oblast'","Russia",53.52,49.41,"+03:00",,0,0,
4760,"Tynda","Amurskaya Oblast'","Russia",55.16,124.71,"+03:00",,0,0,
4763,"Vladikavkaz","Chuvashiya","Russia",43.04,44.68,"+03:00",,0,0,
4767,"Zelenograd","Moskovskaya Oblast'","Russia",56.00,37.20,"+03:00",,0,0,
4771,"Eskilstuna","Sodermanlands Lan","Sweden",59.36,16.50,"+01:00",,0,0,
4773,"Gothenburg","Vastra Gotaland","Sweden",57.71,11.96,"+01:00",,0,0,
4774,"Hammenhög","Skane Lan","Sweden",55.50,14.15,"+01:00",,0,0,
4775,"Helsingborg","Skane Lan","Sweden",56.05,12.70,"+01:00",,0,0,
4776,"Jonkoping","Jonkopings Lan","Sweden",57.78,14.18,"+01:00",,0,0,
4778,"Karlskoga","Varmlands Lan","Sweden",59.33,14.51,"+01:00",,0,0,
4779,"Leksand","Dalarnas Lan","Sweden",60.73,15.00,"+01:00",,0,0,
4782,"Mölnlycke","Vastra Gotaland","Sweden",57.65,12.15,"+01:00",,0,0,
4783,"Mora","Dalarnas Lan","Sweden",60.40,15.60,"+01:00",,0,0,
4784,"Munkfors","Varmlands Lan","Sweden",59.83,13.53,"+01:00",,0,0,
4785,"Nybro","Skane Lan","Sweden",55.43,13.93,"+01:00",,0,0,
4786,"Oxelösund","Sodermanlands Lan","Sweden",58.66,17.10,"+01:00",,0,0,
4787,"Ronneby","Blekinge Lan","Sweden",56.20,15.30,"+01:00",,0,0,
4788,"Skovde","Vastra Gotaland","Sweden",58.40,13.83,"+01:00",,0,0,
4789,"Solna","Stockholms Lan","Sweden",59.36,18.01,"+01:00",,0,0,
4791,"Sunne","Varmlands Lan","Sweden",59.83,13.15,"+01:00",,0,0,
4792,"Vaxjo","Kronobergs Lan","Sweden",56.88,14.81,"+01:00",,0,0,
4793,"Vimmerby","Kalmar Lan","Sweden",57.66,15.85,"+01:00",,0,0,
4794,"Ljubljana","Ljubljana","Slovenia",46.05,14.51,"+01:00",,0,0,
4795,"Bardejov","Presovsky","Slovakia",49.28,21.28,"+01:00",,0,0,
4796,"Kosice","Kosicky","Slovakia",48.71,21.25,"+01:00",,0,0,
4797,"Nitra","Nitrinsky","Slovakia",48.31,18.08,"+01:00",,0,0,
4798,"Spisska Nova Ves","Presovsky","Slovakia",48.95,20.56,"+01:00",,0,0,
4799,"Bo","Southern","Sierra Leone",7.94,-11.76,"+00:00",,0,0,
4800,"Freetown","Western Area","Sierra Leone",8.49,-13.23,"+00:00",,0,0,
4801,"San Marino","San Marino","San Marino",43.93,12.45,"+01:00",,0,0,
4802,"Dakar","Kaolack","Senegal",14.66,-17.43,"+00:00",,0,0,
4803,"Kaolack","Kaolack","Senegal",14.15,-16.06,"+00:00",,0,0,
4804,"Linguere","Louga","Senegal",15.40,-15.11,"+00:00",,0,0,
4806,"Ziguinchor","Ziguinchor","Senegal",12.58,-16.26,"+00:00",,0,0,
4807,"Arcatao","Chalatenango","El Salvador",14.08,-88.75,"-06:00",,0,0,
4809,"San Antonio Los Ranchos","San Vicente","El Salvador",13.63,-88.86,"-06:00",,0,0,
4810,"San Jose Las Flores","Santa Ana","El Salvador",13.86,-89.49,"-06:00",,0,0,
4811,"San Miguel","Santa Ana","El Salvador",14.33,-89.35,"-06:00",,0,0,
4812,"Santa Ana","Ahuachapan","El Salvador",13.25,-88.17,"-06:00",,0,0,
4813,"Tenancingo","Cuscatlan","El Salvador",13.83,-88.98,"-06:00",,0,0,
4814,"Lome","Maritime","Togo",6.13,1.22,"+00:00",,0,0,
4815,"Bangkok","Krung Thep Mahanakhon","Thailand",13.75,100.51,"+07:00",,0,0,
4817,"Laem Chabang","Thailand","Thailand",0.00,0.00,"+07:00",,0,0,
4819,"Dushanbe","Kuhistoni Badakhshon","Tajikistan",38.08,70.01,"+05:00",,0,0,
4820,"Khujand","Leninobod","Tajikistan",40.28,69.63,"+05:00",,0,0,
4821,"Ashgabat","Ahal","Turkmenistan",37.95,58.38,"+05:00",,0,0,
4822,"Carthage","Tunis","Tunisia",36.85,10.33,"+01:00",,0,0,
4823,"Gafsa","Qafsah","Tunisia",34.42,8.78,"+01:00",,0,0,
4824,"Istanbul","Istanbul","Turkey",41.01,28.96,"+02:00",,0,0,
4825,"Izmir","Izmir","Turkey",38.41,27.15,"+02:00",,0,0,
4826,"Mersin","Icel","Turkey",36.80,34.63,"+02:00",,0,0,
4827,"Mugla","Mugla","Turkey",37.20,28.36,"+02:00",,0,0,
4829,"Arusha","Arusha","Tanzania",-3.36,36.68,"+03:00",,0,0,
4830,"Bagamoyo","Tanga","Tanzania",-4.55,37.86,"+03:00",,0,0,
4831,"Dar Es Salaam","Dar es Salaam","Tanzania",-6.80,39.28,"+03:00",,0,0,
4832,"Morogoro","Tanga","Tanzania",-5.18,38.40,"+03:00",,0,0,
4833,"Shinyanga","Shinyanga","Tanzania",-3.66,33.43,"+03:00",,0,0,
4834,"Alushta","Avtonomna Respublika Krym","Ukraine",44.66,34.41,"+02:00",,0,0,
4835,"Bogodukhov","Kharkivs'ka Oblast'","Ukraine",50.16,35.51,"+02:00",,0,0,
4836,"Brovary","Kyyivs'ka Oblast'","Ukraine",50.50,30.76,"+02:00",,0,0,
4837,"Cherkassy","Cherkas'ka Oblast'","Ukraine",49.43,32.06,"+02:00",,0,0,
4838,"Chernivtsi","Cherkas'ka Oblast'","Ukraine",48.30,25.93,"+02:00",,0,0,
4840,"Dnebrovsky","Dnipropetrovs'ka Oblast'","Ukraine",47.56,34.96,"+02:00",,0,0,
4841,"Gorlovka","Donets'ka Oblast'","Ukraine",48.30,38.05,"+02:00",,0,0,
4842,"Kaniv","Cherkas'ka Oblast'","Ukraine",49.75,31.46,"+02:00",,0,0,
4843,"Kharkiv","Kharkivs'ka Oblast'","Ukraine",50.00,36.25,"+02:00",,0,0,
4844,"Kherson","Mykolayivs'ka Oblast'","Ukraine",46.63,32.60,"+02:00",,0,0,
4846,"Kiev","Misto Kyyiv","Ukraine",50.43,30.51,"+02:00",,0,0,
4848,"Lviv","L'vivs'ka Oblast'","Ukraine",49.83,24.00,"+02:00",,0,0,
4849,"Merefa","Kharkivs'ka Oblast'","Ukraine",49.82,36.05,"+02:00",,0,0,
4850,"Odessa","Odes'ka Oblast","Ukraine",46.46,30.73,"+02:00",,0,0,
4851,"Poltava","Poltavs'ka Oblast'","Ukraine",49.58,34.56,"+02:00",,0,0,
4852,"Shpola","Cherkas'ka Oblast'","Ukraine",49.00,31.39,"+02:00",,0,0,
4854,"Smila","Vinnyts'ka Oblast'","Ukraine",49.78,28.16,"+02:00",,0,0,
4855,"Ternopil","Ternopil's'ka Oblast'","Ukraine",0.00,0.00,"+02:00",,0,0,
4857,"Uzhgorod","Zakarpats'ka Oblast'","Ukraine",48.61,22.30,"+02:00",,0,0,
4858,"Yalta","Odes'ka Oblast","Ukraine",49.18,36.45,"+02:00",,0,0,
4859,"Caracas","Distrito Federal","Venezuela",10.50,-66.91,"-04:00",,0,0,
4860,"Puerto la Cruz","Anzoategui","Venezuela",10.21,-64.61,"-04:00",,0,0,
4861,"Jinja","Jinja","Uganda",0.43,33.21,"+03:00",,0,0,
4862,"Kampala","Kampala","Uganda",0.31,32.58,"+03:00",,0,0,
4863,"Andover","England","United Kingdom",51.20,-1.47,"+00:00",,0,0,
4864,"Ashby-de-la-Zouch","England","United Kingdom",52.74,-1.47,"+00:00",,0,0,
4865,"Ashford","England","United Kingdom",51.43,-0.46,"+00:00",,0,0,
4866,"Barnet","England","United Kingdom",51.64,-0.20,"+00:00",,0,0,
4868,"Belfast","Northern Ireland","United Kingdom",54.58,-5.93,"+00:00",,0,0,
4869,"Belper","England","United Kingdom",53.02,-1.47,"+00:00",,0,0,
4870,"Berwick Upon Tweed","England","United Kingdom",55.76,-2.00,"+00:00",,0,0,
4871,"Billericay","England","United Kingdom",51.62,0.42,"+00:00",,0,0,
4872,"Birmingham","England","United Kingdom",52.48,-1.86,"+00:00",,0,0,
4873,"Braemar","Scotland","United Kingdom",57.00,-3.40,"+00:00",,0,0,
4874,"Brecon","Wales","United Kingdom",51.95,-3.38,"+00:00",,0,0,
4875,"Brentwood","England","United Kingdom",51.61,0.31,"+00:00",,0,0,
4876,"Broomfield","England","United Kingdom",51.35,1.15,"+00:00",,0,0,
4877,"Burton Upon Tren","England","United Kingdom",52.79,-1.63,"+00:00",,0,0,
4878,"Cambridge","England","United Kingdom",52.20,0.14,"+00:00",,0,0,
4879,"Canterbury","England","United Kingdom",51.27,1.07,"+00:00",,0,0,
4880,"Cheltenham","England","United Kingdom",51.90,-2.08,"+00:00",,0,0,
4881,"Chester","England","United Kingdom",53.19,-2.89,"+00:00",,0,0,
4884,"Colchester","England","United Kingdom",51.89,0.90,"+00:00",,0,0,
4885,"Coventry","England","United Kingdom",52.40,-1.50,"+00:00",,0,0,
4886,"Cumbernauld","Scotland","United Kingdom",55.94,-3.97,"+00:00",,0,0,
4887,"Dartmouth","England","United Kingdom",50.35,-3.58,"+00:00",,0,0,
4889,"Doncaster","England","United Kingdom",53.51,-1.13,"+00:00",,0,0,
4890,"Dunbar","Scotland","United Kingdom",55.99,-2.52,"+00:00",,0,0,
4891,"Dundee","Scotland","United Kingdom",56.48,-3.03,"+00:00",,0,0,
4892,"Durham","England","United Kingdom",54.77,-1.57,"+00:00",,0,0,
4893,"Edinburgh","Scotland","United Kingdom",55.94,-3.16,"+00:00",,0,0,
4894,"Falkirk","Scotland","United Kingdom",56.00,-3.78,"+00:00",,0,0,
4895,"Forres","Scotland","United Kingdom",57.60,-3.61,"+00:00",,0,0,
4896,"Glastonbury","England","United Kingdom",51.15,-2.70,"+00:00",,0,0,
4898,"Grangemouth","Scotland","United Kingdom",56.01,-3.70,"+00:00",,0,0,
4899,"Great Wilbraham","England","United Kingdom",52.19,0.26,"+00:00",,0,0,
4900,"Greenock","Scotland","United Kingdom",55.95,-4.76,"+00:00",,0,0,
4902,"Hartlepool","England","United Kingdom",54.68,-1.21,"+00:00",,0,0,
4903,"Haverhill","England","United Kingdom",52.08,0.43,"+00:00",,0,0,
4904,"Hawarden","Wales","United Kingdom",53.18,-3.02,"+00:00",,0,0,
4905,"Inverness","Scotland","United Kingdom",57.48,-4.22,"+00:00",,0,0,
4906,"Keighley","England","United Kingdom",53.86,-1.90,"+00:00",,0,0,
4907,"Kelso","Scotland","United Kingdom",55.60,-2.43,"+00:00",,0,0,
4908,"Kennet","Scotland","United Kingdom",56.10,-3.72,"+00:00",,0,0,
4909,"Kettering","England","United Kingdom",52.39,-0.71,"+00:00",,0,0,
4910,"Kingston Upon Hull","England","United Kingdom",53.75,-0.33,"+00:00",,0,0,
